[
  {
    "id": 10,
    "name": "Костел Різдва Пресвятої Діви Марії",
    "category": "culture",
    "description": "",
    "address": "Житомирська область",
    "coordinates": {
      "lat": 50.318413799999995,
      "lng": 29.066138125000002
    },
    "phone": null,
    "website": null,
    "workingHours": null,
    "osm_id": "relation/7596395",
    "rating": 3.6
  },
  {
    "id": 20,
    "name": "Центр культури та дозвілля",
    "category": "culture",
    "description": "",
    "address": "вулиця Михайла Грушевського, 16",
    "coordinates": {
      "lat": 50.76814393684211,
      "lng": 29.243461657894734
    },
    "phone": null,
    "website": null,
    "workingHours": null,
    "osm_id": "relation/8021721",
    "rating": 4.3
  },
  {
    "id": 37,
    "name": "Українська православна Свято-Сергіївська церква",
    "category": "culture",
    "description": "",
    "address": "Житомирська область",
    "coordinates": {
      "lat": 50.828133685714285,
      "lng": 27.90453148571428
    },
    "phone": null,
    "website": null,
    "workingHours": null,
    "osm_id": "relation/11511247",
    "rating": 3.3
  },
  {
    "id": 38,
    "name": "Будинок культури",
    "category": "culture",
    "description": "",
    "address": "Соборна вулиця, 7",
    "coordinates": {
      "lat": 50.59576391578948,
      "lng": 28.44619052631579
    },
    "phone": null,
    "website": null,
    "workingHours": null,
    "osm_id": "relation/11527424",
    "rating": 3.3
  },
  {
    "id": 39,
    "name": "Історико-краєзнавчий музей",
    "category": "culture",
    "description": "",
    "address": "Житомирська область",
    "coordinates": {
      "lat": 50.293902433333336,
      "lng": 27.674226222222224
    },
    "phone": null,
    "website": null,
    "workingHours": null,
    "osm_id": "relation/12808662",
    "rating": 4.7
  },
  {
    "id": 55,
    "name": "Спасо-Преображенський кафедральний собор УПЦ",
    "category": "culture",
    "description": "",
    "address": "вулиця Перемоги, 14",
    "coordinates": {
      "lat": 50.2575025707317,
      "lng": 28.657547909756094
    },
    "phone": null,
    "website": null,
    "workingHours": null,
    "osm_id": "way/87546742",
    "rating": 3.2
  },
  {
    "id": 56,
    "name": "Храм Покрови Пресвятої Богородиці",
    "category": "culture",
    "description": "",
    "address": "Покровська вулиця, 98",
    "coordinates": {
      "lat": 50.282596299999994,
      "lng": 28.656295544444447
    },
    "phone": null,
    "website": null,
    "workingHours": null,
    "osm_id": "way/87660673",
    "rating": 3.6
  },
  {
    "id": 57,
    "name": "Драмтеатр ім. Івана Кочерги",
    "category": "culture",
    "description": "",
    "address": "Соборний майдан, 6",
    "coordinates": {
      "lat": 50.253700974999994,
      "lng": 28.659294766666665
    },
    "phone": null,
    "website": null,
    "workingHours": null,
    "osm_id": "way/87900937",
    "rating": 4.9
  },
  {
    "id": 72,
    "name": "Краєзнавчий музей",
    "category": "culture",
    "description": "",
    "address": "6",
    "coordinates": {
      "lat": 50.950966640000004,
      "lng": 28.647739220000005
    },
    "phone": null,
    "website": null,
    "workingHours": null,
    "osm_id": "way/169026771",
    "rating": 3.0
  },
  {
    "id": 73,
    "name": "Будинок науки і техніки",
    "category": "culture",
    "description": "",
    "address": "вулиця Шевченка, 38/2, Коростень",
    "coordinates": {
      "lat": 50.955905933333334,
      "lng": 28.6336078
    },
    "phone": null,
    "website": null,
    "workingHours": null,
    "osm_id": "way/169405827",
    "rating": 4.3
  },
  {
    "id": 76,
    "name": "Житомирський обласний краєзнавчий музей",
    "category": "culture",
    "description": "",
    "address": "Замковий майдан, 1",
    "coordinates": {
      "lat": 50.25499361666667,
      "lng": 28.65546262083333
    },
    "phone": null,
    "website": null,
    "workingHours": null,
    "osm_id": "way/172620020",
    "rating": 4.3
  },
  {
    "id": 78,
    "name": "Михайлівський кафедральний собор ПЦУ",
    "category": "culture",
    "description": "",
    "address": "Київська вулиця, 18",
    "coordinates": {
      "lat": 50.256616734146355,
      "lng": 28.664006736585375
    },
    "phone": null,
    "website": null,
    "workingHours": null,
    "osm_id": "way/173565394",
    "rating": 4.5
  },
  {
    "id": 79,
    "name": "Житомирський обласний літературний музей",
    "category": "culture",
    "description": "",
    "address": "Київська вулиця, 45",
    "coordinates": {
      "lat": 50.259306226666666,
      "lng": 28.67089558666667
    },
    "phone": null,
    "website": null,
    "workingHours": null,
    "osm_id": "way/176504551",
    "rating": 4.8
  },
  {
    "id": 80,
    "name": "Монастир сестер Бенедиктинок",
    "category": "culture",
    "description": "",
    "address": "вулиця Короленка, 41в",
    "coordinates": {
      "lat": 50.26256524,
      "lng": 28.6395681
    },
    "phone": null,
    "website": null,
    "workingHours": null,
    "osm_id": "way/182993665",
    "rating": 3.2
  },
  {
    "id": 81,
    "name": "Катедральний собор св. Софії",
    "category": "culture",
    "description": "",
    "address": "Замковий майдан, 2",
    "coordinates": {
      "lat": 50.255086483333336,
      "lng": 28.654616516666668
    },
    "phone": null,
    "website": null,
    "workingHours": null,
    "osm_id": "way/185040332",
    "rating": 4.6
  },
  {
    "id": 84,
    "name": "Семінарський костел св. Йоана з Дуклі",
    "category": "culture",
    "description": "",
    "address": "Київська вулиця, 4",
    "coordinates": {
      "lat": 50.25513238048781,
      "lng": 28.659928878048774
    },
    "phone": null,
    "website": null,
    "workingHours": null,
    "osm_id": "way/185461783",
    "rating": 4.5
  },
  {
    "id": 85,
    "name": "Огель",
    "category": "culture",
    "description": "",
    "address": "Житомирська область",
    "coordinates": {
      "lat": 49.90849422000001,
      "lng": 28.59036506
    },
    "phone": null,
    "website": null,
    "workingHours": null,
    "osm_id": "way/186510994",
    "rating": 3.0
  },
  {
    "id": 92,
    "name": "АВТОНОМНА РЕЛІГІЙНА ГРОМАДА ЦЕРКВИ ХРИСТИЯН ВІРИ ЄВАНГЕЛЬСЬКОЇ",
    "category": "culture",
    "description": "",
    "address": "вулиця Івана Сльоти, 58",
    "coordinates": {
      "lat": 50.259988979999996,
      "lng": 28.699427399999998
    },
    "phone": null,
    "website": null,
    "workingHours": null,
    "osm_id": "way/189677800",
    "rating": 4.6
  },
  {
    "id": 94,
    "name": "Дім молитви церкви «Благодать» Євангельських Християн Баптистів",
    "category": "culture",
    "description": "",
    "address": "майдан Мистецькі Ворота, 6",
    "coordinates": {
      "lat": 50.26481136666666,
      "lng": 28.689030649999996
    },
    "phone": null,
    "website": null,
    "workingHours": null,
    "osm_id": "way/194281320",
    "rating": 3.6
  },
  {
    "id": 95,
    "name": "Церква Олександра Патріарха Константинопольського ПЦУ",
    "category": "culture",
    "description": "",
    "address": "24-В",
    "coordinates": {
      "lat": 50.3562049,
      "lng": 29.271274819047616
    },
    "phone": null,
    "website": null,
    "workingHours": null,
    "osm_id": "way/203491320",
    "rating": 3.6
  },
  {
    "id": 96,
    "name": "Костел Святого Архангела Михаїла",
    "category": "culture",
    "description": "",
    "address": "Житомирська область",
    "coordinates": {
      "lat": 50.63851603076924,
      "lng": 29.469087669230774
    },
    "phone": null,
    "website": null,
    "workingHours": null,
    "osm_id": "way/212654850",
    "rating": 3.0
  },
  {
    "id": 98,
    "name": "Будинок-музей Корольова",
    "category": "culture",
    "description": "",
    "address": "Дмитрівська вулиця, 5",
    "coordinates": {
      "lat": 50.253621457142856,
      "lng": 28.67791604285714
    },
    "phone": "+380 412 37 9523;+380 412 37 2030;+380 412 37 2653",
    "website": null,
    "workingHours": "Tu-Su 10:00-13:00, 14:00-17:15",
    "osm_id": "way/220715222",
    "rating": 4.7
  },
  {
    "id": 99,
    "name": "Музей космонавтики",
    "category": "culture",
    "description": "",
    "address": "Дмитрівська вулиця, 2",
    "coordinates": {
      "lat": 50.252987950000005,
      "lng": 28.67758121666667
    },
    "phone": null,
    "website": "https://www.cosmosmuseum.info/",
    "workingHours": "Tu-Su 10:00-13:00, 14:00-17:15",
    "osm_id": "way/220715229",
    "rating": 4.4
  },
  {
    "id": 100,
    "name": "Костьол Непорочного Зачаття Пресвятої Діви Марії",
    "category": "culture",
    "description": "",
    "address": "Житомирська область",
    "coordinates": {
      "lat": 49.89770528666667,
      "lng": 28.57479378666667
    },
    "phone": null,
    "website": null,
    "workingHours": null,
    "osm_id": "way/220719637",
    "rating": 3.8
  },
  {
    "id": 101,
    "name": "Костьол Святої Варвари",
    "category": "culture",
    "description": "",
    "address": "Європейська вулиця",
    "coordinates": {
      "lat": 49.89321858333333,
      "lng": 28.58849725
    },
    "phone": null,
    "website": null,
    "workingHours": null,
    "osm_id": "way/220719638",
    "rating": 3.5
  },
  {
    "id": 103,
    "name": "Музей історії Бердичева",
    "category": "culture",
    "description": "",
    "address": "Житомирська область",
    "coordinates": {
      "lat": 49.89714235714286,
      "lng": 28.574306714285715
    },
    "phone": null,
    "website": null,
    "workingHours": null,
    "osm_id": "way/220719641",
    "rating": 4.8
  },
  {
    "id": 104,
    "name": "Церква Святого Миколая",
    "category": "culture",
    "description": "",
    "address": "Європейська вулиця",
    "coordinates": {
      "lat": 49.894223473333334,
      "lng": 28.583416520000004
    },
    "phone": null,
    "website": null,
    "workingHours": null,
    "osm_id": "way/220719643",
    "rating": 3.7
  },
  {
    "id": 105,
    "name": "Церква Святителя Миколая Чудотворця",
    "category": "culture",
    "description": "",
    "address": "Чорнобильська вулиця, 6",
    "coordinates": {
      "lat": 50.502700000000004,
      "lng": 29.242286599999996
    },
    "phone": null,
    "website": null,
    "workingHours": null,
    "osm_id": "way/227204865",
    "rating": 4.6
  },
  {
    "id": 108,
    "name": "Замок-музей Радомисль",
    "category": "culture",
    "description": "",
    "address": "Плетенецька вулиця, 15, Радомишль",
    "coordinates": {
      "lat": 50.47758085555556,
      "lng": 29.2163622
    },
    "phone": null,
    "website": null,
    "workingHours": "We-Su 10:00-18:00",
    "osm_id": "way/237133180",
    "rating": 3.3
  },
  {
    "id": 110,
    "name": "Краєзнавчий музей Поліського природного заповідника",
    "category": "culture",
    "description": "",
    "address": "Житомирська область",
    "coordinates": {
      "lat": 51.535418400000005,
      "lng": 28.101241379999998
    },
    "phone": null,
    "website": null,
    "workingHours": null,
    "osm_id": "way/244406739",
    "rating": 4.3
  },
  {
    "id": 111,
    "name": "Свято-Миколаївська церква",
    "category": "culture",
    "description": "",
    "address": "Свято-Миколаївська вулиця",
    "coordinates": {
      "lat": 51.2226261478261,
      "lng": 27.647571352173912
    },
    "phone": null,
    "website": null,
    "workingHours": null,
    "osm_id": "way/244678431",
    "rating": 4.5
  },
  {
    "id": 113,
    "name": "Церква Воскресіння Господнього ПЦУ",
    "category": "culture",
    "description": "",
    "address": "Житомирська область",
    "coordinates": {
      "lat": 50.56150881,
      "lng": 27.93387199
    },
    "phone": null,
    "website": null,
    "workingHours": null,
    "osm_id": "way/247323751",
    "rating": 4.7
  },
  {
    "id": 116,
    "name": "Костел Воздвиження Всечесного Хреста",
    "category": "culture",
    "description": "",
    "address": "вулиця Івана Франка, 2",
    "coordinates": {
      "lat": 51.22215534545455,
      "lng": 27.649887545454547
    },
    "phone": null,
    "website": null,
    "workingHours": null,
    "osm_id": "way/255763549",
    "rating": 4.7
  },
  {
    "id": 118,
    "name": "Ляльковий театр",
    "category": "culture",
    "description": "",
    "address": "Михайлівська вулиця, 7",
    "coordinates": {
      "lat": 50.254708868749994,
      "lng": 28.664616706249998
    },
    "phone": null,
    "website": null,
    "workingHours": null,
    "osm_id": "way/260275938",
    "rating": 4.4
  },
  {
    "id": 119,
    "name": "Церква св. Іакова УПЦ",
    "category": "culture",
    "description": "",
    "address": "вулиця Перемоги, 74",
    "coordinates": {
      "lat": 50.2706495875,
      "lng": 28.6486968375
    },
    "phone": null,
    "website": null,
    "workingHours": null,
    "osm_id": "way/264295321",
    "rating": 3.1
  },
  {
    "id": 124,
    "name": "Євангельських християн-баптистів",
    "category": "culture",
    "description": "",
    "address": "проспект Незалежності, 10а",
    "coordinates": {
      "lat": 50.27461516874999,
      "lng": 28.652277081250002
    },
    "phone": null,
    "website": null,
    "workingHours": null,
    "osm_id": "way/267201427",
    "rating": 4.0
  },
  {
    "id": 125,
    "name": "Дім української культури",
    "category": "culture",
    "description": "",
    "address": "Велика Бердичівська вулиця, 61",
    "coordinates": {
      "lat": 50.24852627333333,
      "lng": 28.67867794666666
    },
    "phone": null,
    "website": null,
    "workingHours": null,
    "osm_id": "way/267390891",
    "rating": 3.1
  },
  {
    "id": 126,
    "name": "Житомирська Обласна Філармонія ім. С. Ріхтера",
    "category": "culture",
    "description": "",
    "address": "вулиця Віктора Косенка, 26",
    "coordinates": {
      "lat": 50.24947586,
      "lng": 28.664582269999993
    },
    "phone": null,
    "website": "http://www.filarmonia-zt.com",
    "workingHours": null,
    "osm_id": "way/268565881",
    "rating": 3.7
  },
  {
    "id": 130,
    "name": "Свято-Покровська церква Російської Православної Церкви За Кордоном под омофором Агафангела",
    "category": "culture",
    "description": "Храм належав до 2005 УПЦ МП, з 2005 РЦПЗ (до роскольний період ) .",
    "address": "Соборна площа, 3",
    "coordinates": {
      "lat": 50.767340466666674,
      "lng": 29.24079307777778
    },
    "phone": null,
    "website": null,
    "workingHours": null,
    "osm_id": "way/273804184",
    "rating": 3.3
  },
  {
    "id": 134,
    "name": "Хресто-Воздвиженський кафедральний собор УПЦ",
    "category": "culture",
    "description": "",
    "address": "Кафедральна вулиця, 14",
    "coordinates": {
      "lat": 50.25397052777779,
      "lng": 28.65314113611111
    },
    "phone": null,
    "website": null,
    "workingHours": null,
    "osm_id": "way/278068538",
    "rating": 4.6
  },
  {
    "id": 138,
    "name": "Старообрядницька Покровська церква",
    "category": "culture",
    "description": "",
    "address": "Каракульна вулиця, 6",
    "coordinates": {
      "lat": 50.27430961818182,
      "lng": 28.645544999999995
    },
    "phone": null,
    "website": null,
    "workingHours": null,
    "osm_id": "way/282883523",
    "rating": 4.8
  },
  {
    "id": 141,
    "name": "Келія-молельня Ікони Христа Кровоточивого Спаса",
    "category": "culture",
    "description": "на 1-му поверсі-господарчі кімнати, на 2-му поверсі келія-молельня з Іконою Христа Кровоточивого Спаса.",
    "address": "Житомирська область",
    "coordinates": {
      "lat": 50.810553653846156,
      "lng": 28.927883753846153
    },
    "phone": null,
    "website": null,
    "workingHours": null,
    "osm_id": "way/298476201",
    "rating": 3.5
  },
  {
    "id": 142,
    "name": "Свято-Троїцька Церква РПЦ",
    "category": "culture",
    "description": "",
    "address": "Малинська вулиця, 1",
    "coordinates": {
      "lat": 50.82717198461538,
      "lng": 28.95666386153846
    },
    "phone": null,
    "website": null,
    "workingHours": null,
    "osm_id": "way/298478839",
    "rating": 4.7
  },
  {
    "id": 149,
    "name": "Свято-Троїцький кафедральний собор (РПЦ)",
    "category": "culture",
    "description": "",
    "address": "Житомирська вулиця, 88",
    "coordinates": {
      "lat": 50.58850912857143,
      "lng": 27.631191057142853
    },
    "phone": null,
    "website": null,
    "workingHours": null,
    "osm_id": "way/310572784",
    "rating": 4.8
  },
  {
    "id": 151,
    "name": "Свято-Михайлiвський храм",
    "category": "culture",
    "description": "",
    "address": "вулиця Шевченка, 9",
    "coordinates": {
      "lat": 50.58993304999999,
      "lng": 27.616347205555556
    },
    "phone": null,
    "website": null,
    "workingHours": null,
    "osm_id": "way/311899987",
    "rating": 4.0
  },
  {
    "id": 152,
    "name": "Церква Воскресіння Словущого ПЦУ",
    "category": "culture",
    "description": "",
    "address": "Житомирська область",
    "coordinates": {
      "lat": 50.02026809999999,
      "lng": 28.371122733333333
    },
    "phone": null,
    "website": null,
    "workingHours": null,
    "osm_id": "way/313867491",
    "rating": 3.3
  },
  {
    "id": 160,
    "name": "Церква святого Василя",
    "category": "culture",
    "description": "",
    "address": "Житомирська область",
    "coordinates": {
      "lat": 51.315261799999995,
      "lng": 28.799890239999996
    },
    "phone": null,
    "website": null,
    "workingHours": null,
    "osm_id": "way/316380234",
    "rating": 3.3
  },
  {
    "id": 161,
    "name": "Спасо-Преображенський собор",
    "category": "culture",
    "description": "",
    "address": "Соборна вулиця, 18",
    "coordinates": {
      "lat": 51.315731140000004,
      "lng": 28.79612126
    },
    "phone": null,
    "website": null,
    "workingHours": null,
    "osm_id": "way/316380759",
    "rating": 3.7
  },
  {
    "id": 166,
    "name": "Почаївська церква",
    "category": "culture",
    "description": "",
    "address": "Житомирська область",
    "coordinates": {
      "lat": 50.29006496000001,
      "lng": 28.62016714
    },
    "phone": null,
    "website": null,
    "workingHours": null,
    "osm_id": "way/320530566",
    "rating": 4.4
  },
  {
    "id": 167,
    "name": "Бердичівський музично-драматичний театр",
    "category": "culture",
    "description": "",
    "address": "21",
    "coordinates": {
      "lat": 49.89396623846154,
      "lng": 28.587679461538468
    },
    "phone": null,
    "website": null,
    "workingHours": null,
    "osm_id": "way/328411630",
    "rating": 4.2
  },
  {
    "id": 168,
    "name": "Церква Святого Василія Великого",
    "category": "culture",
    "description": "",
    "address": "вулиця Шевченка, 111",
    "coordinates": {
      "lat": 50.25897578,
      "lng": 28.702135939999998
    },
    "phone": null,
    "website": null,
    "workingHours": null,
    "osm_id": "way/328480173",
    "rating": 3.2
  },
  {
    "id": 173,
    "name": "Свято-Успенський архієрейський собор УПЦ",
    "category": "culture",
    "description": "",
    "address": "вулиця Шолом-Алейхема, 7а",
    "coordinates": {
      "lat": 50.25583007083333,
      "lng": 28.651118829166663
    },
    "phone": null,
    "website": null,
    "workingHours": null,
    "osm_id": "way/348002843",
    "rating": 4.2
  },
  {
    "id": 174,
    "name": "Свято-Анастасієвський жіночий монастир",
    "category": "culture",
    "description": "",
    "address": "Соснова вулиця, 13а",
    "coordinates": {
      "lat": 50.2665577,
      "lng": 28.61724280833333
    },
    "phone": null,
    "website": null,
    "workingHours": null,
    "osm_id": "way/348220242",
    "rating": 4.6
  },
  {
    "id": 176,
    "name": "Музей В.Г.Короленка",
    "category": "culture",
    "description": "",
    "address": "майдан Короленка, 1",
    "coordinates": {
      "lat": 50.2614497,
      "lng": 28.649840819999998
    },
    "phone": null,
    "website": null,
    "workingHours": null,
    "osm_id": "way/348891215",
    "rating": 4.8
  },
  {
    "id": 182,
    "name": "Церква \"Воскресіння Христове\" Української Лютеранської Церкви",
    "category": "culture",
    "description": "",
    "address": "29",
    "coordinates": {
      "lat": 50.76476876,
      "lng": 29.259323419999998
    },
    "phone": null,
    "website": null,
    "workingHours": null,
    "osm_id": "way/355482485",
    "rating": 3.1
  },
  {
    "id": 188,
    "name": "Каплиця Преображенського Тригірського чоловічого монастиря УПЦ МП",
    "category": "culture",
    "description": "",
    "address": "Набережна вулиця, 1",
    "coordinates": {
      "lat": 50.200523999999994,
      "lng": 28.37738468
    },
    "phone": null,
    "website": null,
    "workingHours": null,
    "osm_id": "way/364539168",
    "rating": 4.0
  },
  {
    "id": 197,
    "name": "Костьол Пресвятого Серця Ісуса",
    "category": "culture",
    "description": "",
    "address": "Житомирська область",
    "coordinates": {
      "lat": 50.293948,
      "lng": 27.97279006
    },
    "phone": null,
    "website": null,
    "workingHours": null,
    "osm_id": "way/370864088",
    "rating": 4.2
  },
  {
    "id": 198,
    "name": "каплиця церкви Святої Рівноапостольної Марії Магдалини УПЦ МП",
    "category": "culture",
    "description": "",
    "address": "Житомирська область",
    "coordinates": {
      "lat": 50.284464400000005,
      "lng": 29.020713460000003
    },
    "phone": null,
    "website": null,
    "workingHours": null,
    "osm_id": "way/371309617",
    "rating": 3.0
  },
  {
    "id": 202,
    "name": "Костел Знайдення Хреста Господнього",
    "category": "culture",
    "description": "",
    "address": "Житомирська область",
    "coordinates": {
      "lat": 50.051650414285724,
      "lng": 28.117126942857144
    },
    "phone": null,
    "website": null,
    "workingHours": null,
    "osm_id": "way/372393789",
    "rating": 3.7
  },
  {
    "id": 203,
    "name": "Церква Різдва Богородиці",
    "category": "culture",
    "description": "",
    "address": "Житомирська область",
    "coordinates": {
      "lat": 50.05648572222223,
      "lng": 28.10954731111111
    },
    "phone": null,
    "website": null,
    "workingHours": null,
    "osm_id": "way/372481931",
    "rating": 4.3
  },
  {
    "id": 204,
    "name": "Костел Тіла і Крові Ісуса Христа",
    "category": "culture",
    "description": "",
    "address": "Соборна вулиця, 24",
    "coordinates": {
      "lat": 49.7197169,
      "lng": 29.21366568888889
    },
    "phone": null,
    "website": null,
    "workingHours": null,
    "osm_id": "way/373579412",
    "rating": 4.0
  },
  {
    "id": 211,
    "name": "Церква св. Юрія ПЦУ",
    "category": "culture",
    "description": "",
    "address": "Житомирська область",
    "coordinates": {
      "lat": 50.18336058095238,
      "lng": 28.76113296190477
    },
    "phone": null,
    "website": null,
    "workingHours": null,
    "osm_id": "way/382750848",
    "rating": 5.0
  },
  {
    "id": 216,
    "name": "Костел Святого Антонія Падуанського",
    "category": "culture",
    "description": "",
    "address": "Житомирська область",
    "coordinates": {
      "lat": 50.10320824,
      "lng": 28.94823188
    },
    "phone": null,
    "website": null,
    "workingHours": null,
    "osm_id": "way/394043730",
    "rating": 4.0
  },
  {
    "id": 217,
    "name": "Покровська церква",
    "category": "culture",
    "description": "",
    "address": "Житомирська область",
    "coordinates": {
      "lat": 50.103308,
      "lng": 28.943340780000003
    },
    "phone": null,
    "website": null,
    "workingHours": null,
    "osm_id": "way/394043731",
    "rating": 3.8
  },
  {
    "id": 219,
    "name": "Церква Різдва Пресвятої Святої Богородиці ПЦУ",
    "category": "culture",
    "description": "",
    "address": "Житомирська область",
    "coordinates": {
      "lat": 50.136946092307696,
      "lng": 28.87116106923077
    },
    "phone": null,
    "website": null,
    "workingHours": null,
    "osm_id": "way/394043733",
    "rating": 3.4
  },
  {
    "id": 220,
    "name": "Костел Святої Трійці",
    "category": "culture",
    "description": "",
    "address": "Житомирська область",
    "coordinates": {
      "lat": 50.15423188,
      "lng": 28.846287580000002
    },
    "phone": null,
    "website": null,
    "workingHours": null,
    "osm_id": "way/394043735",
    "rating": 4.7
  },
  {
    "id": 229,
    "name": "Церква Введення в Храм Пресвятої Богородиці ПЦУ",
    "category": "culture",
    "description": "",
    "address": "Житомирська область",
    "coordinates": {
      "lat": 50.37493323076923,
      "lng": 27.984887823076924
    },
    "phone": null,
    "website": null,
    "workingHours": null,
    "osm_id": "way/411421660",
    "rating": 4.5
  },
  {
    "id": 230,
    "name": "Санктуарій матері Божої Фатімської",
    "category": "culture",
    "description": "",
    "address": "Костьольна вулиця, 9",
    "coordinates": {
      "lat": 50.37368255937499,
      "lng": 27.991649253125
    },
    "phone": null,
    "website": null,
    "workingHours": null,
    "osm_id": "way/411421704",
    "rating": 4.9
  },
  {
    "id": 231,
    "name": "Церква с Пресвятої Діви Марії Цариці Вервиці св.",
    "category": "culture",
    "description": "",
    "address": "Костьольна вулиця, 34",
    "coordinates": {
      "lat": 50.1903805,
      "lng": 27.624537899999996
    },
    "phone": null,
    "website": null,
    "workingHours": null,
    "osm_id": "way/412552381",
    "rating": 3.0
  },
  {
    "id": 232,
    "name": "Kościół pw. św. Antoniego",
    "category": "culture",
    "description": "",
    "address": "Центральна вулиця, 53",
    "coordinates": {
      "lat": 50.108810687500004,
      "lng": 27.693073962499998
    },
    "phone": null,
    "website": null,
    "workingHours": null,
    "osm_id": "way/412552382",
    "rating": 4.9
  },
  {
    "id": 233,
    "name": "Костел св. Франциска Асізького",
    "category": "culture",
    "description": "",
    "address": "Костельна вулиця, 4, Мар'янівка",
    "coordinates": {
      "lat": 50.313203166666675,
      "lng": 27.877187944444444
    },
    "phone": null,
    "website": null,
    "workingHours": null,
    "osm_id": "way/412552383",
    "rating": 3.2
  },
  {
    "id": 234,
    "name": "Костел Св. Марії Горетті",
    "category": "culture",
    "description": "",
    "address": "Житомирська область",
    "coordinates": {
      "lat": 50.22238386666666,
      "lng": 28.0227817
    },
    "phone": null,
    "website": null,
    "workingHours": null,
    "osm_id": "way/412552384",
    "rating": 3.6
  },
  {
    "id": 235,
    "name": "Kościół pw. św. Marii Magdaleny",
    "category": "culture",
    "description": "",
    "address": "Зарічна вулиця, 6, Полянка",
    "coordinates": {
      "lat": 50.258596744444446,
      "lng": 27.693299466666666
    },
    "phone": null,
    "website": null,
    "workingHours": null,
    "osm_id": "way/412552385",
    "rating": 3.5
  },
  {
    "id": 236,
    "name": "Костел Святого Станіслава",
    "category": "culture",
    "description": "",
    "address": "вулиця Путіліна, 11, Романів",
    "coordinates": {
      "lat": 50.13858323333333,
      "lng": 27.929883183333335
    },
    "phone": null,
    "website": null,
    "workingHours": null,
    "osm_id": "way/412552386",
    "rating": 3.1
  },
  {
    "id": 237,
    "name": "Храм Св. Станіслава Костки",
    "category": "culture",
    "description": "",
    "address": "Першотравенська вулиця, 21а, Баранівка",
    "coordinates": {
      "lat": 50.28785458,
      "lng": 27.66339328
    },
    "phone": null,
    "website": null,
    "workingHours": null,
    "osm_id": "way/412552387",
    "rating": 4.5
  },
  {
    "id": 238,
    "name": "Kościół pw. św. Stanisława Kostki",
    "category": "culture",
    "description": "",
    "address": "вулиця 1 Травня, 20, Карвинівка",
    "coordinates": {
      "lat": 50.1590744,
      "lng": 28.192178866666666
    },
    "phone": null,
    "website": null,
    "workingHours": null,
    "osm_id": "way/412552388",
    "rating": 4.0
  },
  {
    "id": 239,
    "name": "Костел св. Терези від Дитятка Ісус",
    "category": "culture",
    "description": "",
    "address": "Довбиська вулиця, 62",
    "coordinates": {
      "lat": 50.41181656,
      "lng": 27.8394722
    },
    "phone": null,
    "website": null,
    "workingHours": null,
    "osm_id": "way/412552389",
    "rating": 4.6
  },
  {
    "id": 240,
    "name": "Храм Різдва Пресвятої Богородиці ПЦУ",
    "category": "culture",
    "description": "",
    "address": "Соборна вулиця, 9",
    "coordinates": {
      "lat": 50.29451203333333,
      "lng": 27.666770528571437
    },
    "phone": null,
    "website": null,
    "workingHours": null,
    "osm_id": "way/412552391",
    "rating": 4.2
  },
  {
    "id": 241,
    "name": "Свято-Успенська церква ПЦУ",
    "category": "culture",
    "description": "",
    "address": "Житомирська область",
    "coordinates": {
      "lat": 50.21145074117647,
      "lng": 27.63419997058823
    },
    "phone": null,
    "website": null,
    "workingHours": null,
    "osm_id": "way/412552392",
    "rating": 4.0
  },
  {
    "id": 242,
    "name": "Церква Івана Богослова",
    "category": "culture",
    "description": "",
    "address": "Житомирська область",
    "coordinates": {
      "lat": 50.409794376923074,
      "lng": 27.829490030769236
    },
    "phone": null,
    "website": null,
    "workingHours": null,
    "osm_id": "way/412552393",
    "rating": 3.2
  },
  {
    "id": 243,
    "name": "Церква Петра і Павла ПЦУ",
    "category": "culture",
    "description": "",
    "address": "Житомирська область",
    "coordinates": {
      "lat": 50.137554599999994,
      "lng": 28.196025242857143
    },
    "phone": null,
    "website": null,
    "workingHours": null,
    "osm_id": "way/412552394",
    "rating": 5.0
  },
  {
    "id": 244,
    "name": "Kościół pw. św. Stanisława B. M.",
    "category": "culture",
    "description": "",
    "address": "Житомирська область",
    "coordinates": {
      "lat": 50.481148940000004,
      "lng": 27.88442276
    },
    "phone": null,
    "website": null,
    "workingHours": null,
    "osm_id": "way/413080916",
    "rating": 3.7
  },
  {
    "id": 245,
    "name": "Kościół pw. Chrystusa Króla Wszechświata",
    "category": "culture",
    "description": "",
    "address": "Житомирська область",
    "coordinates": {
      "lat": 50.58602949473684,
      "lng": 27.60238677368421
    },
    "phone": null,
    "website": null,
    "workingHours": null,
    "osm_id": "way/413137961",
    "rating": 4.3
  },
  {
    "id": 246,
    "name": "Костел Воздвиження святого Хреста",
    "category": "culture",
    "description": "",
    "address": "6",
    "coordinates": {
      "lat": 50.57433132,
      "lng": 27.63789008
    },
    "phone": null,
    "website": null,
    "workingHours": null,
    "osm_id": "way/413137962",
    "rating": 3.0
  },
  {
    "id": 251,
    "name": "Свято-Митрофанівської церкви",
    "category": "culture",
    "description": "",
    "address": "Житомирська область",
    "coordinates": {
      "lat": 49.98385606153847,
      "lng": 29.115297023076916
    },
    "phone": null,
    "website": null,
    "workingHours": null,
    "osm_id": "way/416509274",
    "rating": 3.4
  },
  {
    "id": 252,
    "name": "Новоград-Волинський краєзнавчий музей",
    "category": "culture",
    "description": "",
    "address": "вулиця Соборності, 26",
    "coordinates": {
      "lat": 50.58872718,
      "lng": 27.62143562
    },
    "phone": null,
    "website": null,
    "workingHours": "Tu-Sa 08:00-17:00",
    "osm_id": "way/417921173",
    "rating": 3.8
  },
  {
    "id": 255,
    "name": "Церква Святого Різдва Івана Предтечі (ПЦУ)",
    "category": "culture",
    "description": "",
    "address": "Житомирська область",
    "coordinates": {
      "lat": 50.14612505882352,
      "lng": 29.042914382352944
    },
    "phone": null,
    "website": null,
    "workingHours": null,
    "osm_id": "way/420315370",
    "rating": 4.0
  },
  {
    "id": 256,
    "name": "Церква Святого Димитрія ПЦУ",
    "category": "culture",
    "description": "",
    "address": "Житомирська область",
    "coordinates": {
      "lat": 50.09829319230768,
      "lng": 29.197807884615386
    },
    "phone": null,
    "website": null,
    "workingHours": null,
    "osm_id": "way/420315373",
    "rating": 3.6
  },
  {
    "id": 257,
    "name": "Церква Різдва Пресвятої Богородиці ПЦУ",
    "category": "culture",
    "description": "",
    "address": "Містечкова вулиця, 74",
    "coordinates": {
      "lat": 50.10470007368422,
      "lng": 29.29409566842105
    },
    "phone": null,
    "website": null,
    "workingHours": null,
    "osm_id": "way/420335350",
    "rating": 3.3
  },
  {
    "id": 260,
    "name": "Капличка",
    "category": "culture",
    "description": "",
    "address": "Житомирська область",
    "coordinates": {
      "lat": 50.50257394,
      "lng": 27.97370516
    },
    "phone": null,
    "website": null,
    "workingHours": null,
    "osm_id": "way/426568996",
    "rating": 3.8
  },
  {
    "id": 268,
    "name": "Дім молитви євангелійських християн баптистів",
    "category": "culture",
    "description": "",
    "address": "Київська вулиця, 18",
    "coordinates": {
      "lat": 50.31497496,
      "lng": 29.06712228
    },
    "phone": null,
    "website": null,
    "workingHours": null,
    "osm_id": "way/432578329",
    "rating": 3.9
  },
  {
    "id": 269,
    "name": "Баптиська церква",
    "category": "culture",
    "description": "",
    "address": "Київська вулиця, 18",
    "coordinates": {
      "lat": 50.31497752307692,
      "lng": 29.066653284615388
    },
    "phone": null,
    "website": null,
    "workingHours": null,
    "osm_id": "way/432578331",
    "rating": 4.8
  },
  {
    "id": 270,
    "name": "Церква Святої Трійці (ПЦУ)",
    "category": "culture",
    "description": "",
    "address": "Різдвяна вулиця, 13",
    "coordinates": {
      "lat": 50.31640501666667,
      "lng": 29.06437670833333
    },
    "phone": null,
    "website": null,
    "workingHours": null,
    "osm_id": "way/432578336",
    "rating": 4.9
  },
  {
    "id": 274,
    "name": "Сільський клуб",
    "category": "culture",
    "description": "",
    "address": "90",
    "coordinates": {
      "lat": 50.795632822222224,
      "lng": 29.426637344444444
    },
    "phone": null,
    "website": null,
    "workingHours": null,
    "osm_id": "way/435422542",
    "rating": 4.5
  },
  {
    "id": 275,
    "name": "Костел Божого Милосердя",
    "category": "culture",
    "description": "",
    "address": "вулиця Святого Йоана Павла II, 3б",
    "coordinates": {
      "lat": 50.2534977,
      "lng": 28.63511248888889
    },
    "phone": null,
    "website": "https://pallotti.org.ua/",
    "workingHours": null,
    "osm_id": "way/435591445",
    "rating": 3.3
  },
  {
    "id": 276,
    "name": "Церква Ікони Казанської Божої Матері РПЦ",
    "category": "culture",
    "description": "",
    "address": "Центральна вулиця, 19-Д",
    "coordinates": {
      "lat": 49.96748972105263,
      "lng": 28.965705047368427
    },
    "phone": null,
    "website": null,
    "workingHours": null,
    "osm_id": "way/440178105",
    "rating": 3.6
  },
  {
    "id": 312,
    "name": "Районний будинок культури",
    "category": "culture",
    "description": "",
    "address": "4",
    "coordinates": {
      "lat": 50.950755699999995,
      "lng": 28.645094522222223
    },
    "phone": null,
    "website": null,
    "workingHours": null,
    "osm_id": "way/448267991",
    "rating": 4.8
  },
  {
    "id": 313,
    "name": "Філія Коростенського міського будинку культури",
    "category": "culture",
    "description": "",
    "address": "Каштанова вулиця, 1, Коростень",
    "coordinates": {
      "lat": 50.91868635882353,
      "lng": 28.5653457
    },
    "phone": null,
    "website": null,
    "workingHours": null,
    "osm_id": "way/448279394",
    "rating": 4.7
  },
  {
    "id": 314,
    "name": "Церква Воздвиження Чесного Хреста Господнього",
    "category": "culture",
    "description": "",
    "address": "Житомирська область",
    "coordinates": {
      "lat": 51.32963339999999,
      "lng": 28.687117885714283
    },
    "phone": null,
    "website": null,
    "workingHours": null,
    "osm_id": "way/448914097",
    "rating": 3.6
  },
  {
    "id": 315,
    "name": "Слід Богородиці",
    "category": "culture",
    "description": "",
    "address": "Житомирська область",
    "coordinates": {
      "lat": 51.2552389,
      "lng": 28.8028451375
    },
    "phone": null,
    "website": null,
    "workingHours": null,
    "osm_id": "way/448916792",
    "rating": 3.1
  },
  {
    "id": 319,
    "name": "Палац культури \"Титан\"",
    "category": "culture",
    "description": "",
    "address": "Житомирська область",
    "coordinates": {
      "lat": 50.74865955714286,
      "lng": 28.723453785714288
    },
    "phone": null,
    "website": null,
    "workingHours": null,
    "osm_id": "way/460371373",
    "rating": 4.7
  },
  {
    "id": 321,
    "name": "Ставропігійна Свято-Успінська Церква ПЦУ",
    "category": "culture",
    "description": "",
    "address": "вулиця Миклухо-Маклая, 3-А",
    "coordinates": {
      "lat": 50.77830256666667,
      "lng": 29.173827900000003
    },
    "phone": null,
    "website": null,
    "workingHours": null,
    "osm_id": "way/460483707",
    "rating": 4.6
  },
  {
    "id": 323,
    "name": "Церква Покрови Пресвятої Богородиці ПЦУ",
    "category": "culture",
    "description": "",
    "address": "Центральна вулиця, 29-А",
    "coordinates": {
      "lat": 50.61867076666667,
      "lng": 28.9748085
    },
    "phone": null,
    "website": null,
    "workingHours": null,
    "osm_id": "way/461941053",
    "rating": 4.2
  },
  {
    "id": 324,
    "name": "Ставропігійна Свято-Димитрівська Церква ПЦУ",
    "category": "culture",
    "description": "",
    "address": "56-А",
    "coordinates": {
      "lat": 50.77436836410257,
      "lng": 29.226501379487182
    },
    "phone": null,
    "website": null,
    "workingHours": null,
    "osm_id": "way/462346345",
    "rating": 3.5
  },
  {
    "id": 329,
    "name": "Свято-Георгіївська церква УПЦ МП",
    "category": "culture",
    "description": "",
    "address": "вулиця Шевченка, 67",
    "coordinates": {
      "lat": 50.3130654235294,
      "lng": 29.58526710588235
    },
    "phone": null,
    "website": null,
    "workingHours": null,
    "osm_id": "way/463711163",
    "rating": 3.9
  },
  {
    "id": 399,
    "name": "Костел Святої Анни",
    "category": "culture",
    "description": "при Совітах з початку 1960-хх після закриття костелу до перших років Незалежності спортивна зала як зник",
    "address": "вулиця Героїв України, 1",
    "coordinates": {
      "lat": 50.76744860000001,
      "lng": 29.24440133
    },
    "phone": null,
    "website": null,
    "workingHours": null,
    "osm_id": "way/467051776",
    "rating": 4.3
  },
  {
    "id": 400,
    "name": "Свято-Казанський Храм ПЦУ",
    "category": "culture",
    "description": "from the website: needs financial aid on recovery потребує фіннансової допомоги на відновлення",
    "address": "59",
    "coordinates": {
      "lat": 50.857218090476195,
      "lng": 29.46783648095238
    },
    "phone": null,
    "website": "http://www.our-temple.com.ua/",
    "workingHours": null,
    "osm_id": "way/467109524",
    "rating": 4.1
  },
  {
    "id": 401,
    "name": "Свято-Іоанно-Богословська Церква ПЦУ",
    "category": "culture",
    "description": "",
    "address": "21",
    "coordinates": {
      "lat": 50.872839535000004,
      "lng": 28.973972814999996
    },
    "phone": "+380 4133 99 330",
    "website": null,
    "workingHours": null,
    "osm_id": "way/467181402",
    "rating": 3.3
  },
  {
    "id": 403,
    "name": "церква Великомученика Дмитра УПЦ МП",
    "category": "culture",
    "description": "",
    "address": "Баранівська вулиця, 3",
    "coordinates": {
      "lat": 50.2074746,
      "lng": 27.68165044285714
    },
    "phone": null,
    "website": null,
    "workingHours": null,
    "osm_id": "way/467457824",
    "rating": 3.8
  },
  {
    "id": 406,
    "name": "Cільський клуб",
    "category": "culture",
    "description": "",
    "address": "Житомирська область",
    "coordinates": {
      "lat": 50.79204795555555,
      "lng": 29.273687900000002
    },
    "phone": null,
    "website": null,
    "workingHours": null,
    "osm_id": "way/477763225",
    "rating": 3.5
  },
  {
    "id": 411,
    "name": "Спасо-Преображенський храм ПЦУ",
    "category": "culture",
    "description": "",
    "address": "Житомирська область",
    "coordinates": {
      "lat": 50.23768941666666,
      "lng": 28.581323450000003
    },
    "phone": null,
    "website": null,
    "workingHours": null,
    "osm_id": "way/484316326",
    "rating": 3.4
  },
  {
    "id": 415,
    "name": "Каплиця Горинської Свято-Покровської Церкви ПЦУ",
    "category": "culture",
    "description": "",
    "address": "Житомирська область",
    "coordinates": {
      "lat": 50.73922171428571,
      "lng": 29.14180232857143
    },
    "phone": null,
    "website": null,
    "workingHours": null,
    "osm_id": "way/496320476",
    "rating": 5.0
  },
  {
    "id": 419,
    "name": "Криничка",
    "category": "culture",
    "description": "",
    "address": "Житомирська область",
    "coordinates": {
      "lat": 50.29457180000001,
      "lng": 28.85746004
    },
    "phone": null,
    "website": null,
    "workingHours": null,
    "osm_id": "way/507064268",
    "rating": 3.4
  },
  {
    "id": 420,
    "name": "Молитовно-готельний комплекс",
    "category": "culture",
    "description": "",
    "address": "Житомирська область",
    "coordinates": {
      "lat": 50.706237550000004,
      "lng": 29.289773416666666
    },
    "phone": null,
    "website": null,
    "workingHours": null,
    "osm_id": "way/512632285",
    "rating": 3.2
  },
  {
    "id": 421,
    "name": "Церква Різдва Пресвятої Богородиці УГКЦ",
    "category": "culture",
    "description": "",
    "address": "Житомирська область",
    "coordinates": {
      "lat": 49.779729749999994,
      "lng": 29.440884705000002
    },
    "phone": null,
    "website": null,
    "workingHours": null,
    "osm_id": "way/513040138",
    "rating": 3.6
  },
  {
    "id": 422,
    "name": "Свято-Успенський храм ПЦУ",
    "category": "culture",
    "description": "orthodox_church_in_Ukraine",
    "address": "5",
    "coordinates": {
      "lat": 50.74575083333334,
      "lng": 29.34876518888889
    },
    "phone": null,
    "website": null,
    "workingHours": null,
    "osm_id": "way/514040583",
    "rating": 3.2
  },
  {
    "id": 423,
    "name": "Маєток Ганських (Музей Бальзака)",
    "category": "culture",
    "description": "",
    "address": "Житомирська область",
    "coordinates": {
      "lat": 49.80255807647058,
      "lng": 29.322941447058827
    },
    "phone": null,
    "website": "https://balzac-museum.com/",
    "workingHours": "Mo-Fr 09:00-17:00",
    "osm_id": "way/520317119",
    "rating": 3.5
  },
  {
    "id": 425,
    "name": "Церква Архистратига Михаїла ПЦУ",
    "category": "culture",
    "description": "",
    "address": "Житомирська область",
    "coordinates": {
      "lat": 50.962231653846146,
      "lng": 29.145923653846157
    },
    "phone": null,
    "website": null,
    "workingHours": null,
    "osm_id": "way/520654239",
    "rating": 3.7
  },
  {
    "id": 428,
    "name": "Покровська церква ПЦУ",
    "category": "culture",
    "description": "",
    "address": "Житомирська область",
    "coordinates": {
      "lat": 50.26021872307693,
      "lng": 28.80902954230769
    },
    "phone": null,
    "website": null,
    "workingHours": null,
    "osm_id": "way/531397144",
    "rating": 4.0
  },
  {
    "id": 430,
    "name": "Церква Святої Покрови ПЦУ",
    "category": "culture",
    "description": "",
    "address": "Житомирська область",
    "coordinates": {
      "lat": 50.75217620952381,
      "lng": 28.71776292857143
    },
    "phone": null,
    "website": null,
    "workingHours": null,
    "osm_id": "way/533449113",
    "rating": 3.8
  },
  {
    "id": 432,
    "name": "ЄМІЛЬЧИНСЬКИЙ РАЙОННИЙ БУДИНОК КУЛЬТУРИ",
    "category": "culture",
    "description": "",
    "address": "Соборна вулиця",
    "coordinates": {
      "lat": 50.872408025,
      "lng": 27.804784880000007
    },
    "phone": null,
    "website": null,
    "workingHours": null,
    "osm_id": "way/534216898",
    "rating": 3.4
  },
  {
    "id": 436,
    "name": "Костел св. Власа",
    "category": "culture",
    "description": "",
    "address": "Київська вулиця, 7",
    "coordinates": {
      "lat": 50.0180415,
      "lng": 29.02235248888889
    },
    "phone": null,
    "website": null,
    "workingHours": null,
    "osm_id": "way/538989900",
    "rating": 4.2
  },
  {
    "id": 437,
    "name": "Церква Різдва Пресвятої Богородиці",
    "category": "culture",
    "description": "",
    "address": "Житомирська область",
    "coordinates": {
      "lat": 50.015439863636374,
      "lng": 29.018103004545456
    },
    "phone": null,
    "website": null,
    "workingHours": null,
    "osm_id": "way/538994910",
    "rating": 3.6
  },
  {
    "id": 439,
    "name": "Церква Воздвиження Хреста Господнього ПЦУ",
    "category": "culture",
    "description": "",
    "address": "Житомирська область",
    "coordinates": {
      "lat": 50.434897581818184,
      "lng": 29.03377067272727
    },
    "phone": null,
    "website": null,
    "workingHours": null,
    "osm_id": "way/542219662",
    "rating": 4.9
  },
  {
    "id": 441,
    "name": "Костел Матері Божої Скорботної",
    "category": "culture",
    "description": "",
    "address": "вулиця Єдності, 42в",
    "coordinates": {
      "lat": 50.68598160909091,
      "lng": 28.63240475909091
    },
    "phone": null,
    "website": null,
    "workingHours": null,
    "osm_id": "way/542810085",
    "rating": 3.8
  },
  {
    "id": 442,
    "name": "Церква Святого Пантелеймона",
    "category": "culture",
    "description": "",
    "address": "Житомирська область",
    "coordinates": {
      "lat": 50.691367331578945,
      "lng": 28.62965673157895
    },
    "phone": null,
    "website": null,
    "workingHours": null,
    "osm_id": "way/542829407",
    "rating": 4.0
  },
  {
    "id": 443,
    "name": "Церква Святого Андрія Первозванного",
    "category": "culture",
    "description": "",
    "address": "Житомирська область",
    "coordinates": {
      "lat": 50.69692765789475,
      "lng": 28.635220468421057
    },
    "phone": null,
    "website": null,
    "workingHours": null,
    "osm_id": "way/542829408",
    "rating": 3.2
  },
  {
    "id": 444,
    "name": "Костел Преображення Господнього",
    "category": "culture",
    "description": "",
    "address": "Соборний майдан, 18",
    "coordinates": {
      "lat": 50.59461846000001,
      "lng": 28.446793360000004
    },
    "phone": null,
    "website": null,
    "workingHours": null,
    "osm_id": "way/543002293",
    "rating": 4.7
  },
  {
    "id": 445,
    "name": "Свято-Георгієвська церква РПЦ",
    "category": "culture",
    "description": "",
    "address": "Житомирська область",
    "coordinates": {
      "lat": 50.45536928,
      "lng": 28.67204812
    },
    "phone": null,
    "website": null,
    "workingHours": null,
    "osm_id": "way/543183693",
    "rating": 3.3
  },
  {
    "id": 446,
    "name": "Храм Почаївської ікони Божої Матері",
    "category": "culture",
    "description": "",
    "address": "Житомирська область",
    "coordinates": {
      "lat": 50.449424660000005,
      "lng": 28.67062759
    },
    "phone": null,
    "website": null,
    "workingHours": null,
    "osm_id": "way/543206828",
    "rating": 3.7
  },
  {
    "id": 447,
    "name": "Костел Пресвятої Трійці",
    "category": "culture",
    "description": "",
    "address": "Житомирська область",
    "coordinates": {
      "lat": 50.4499059,
      "lng": 28.669712757142857
    },
    "phone": null,
    "website": null,
    "workingHours": null,
    "osm_id": "way/543206830",
    "rating": 3.8
  },
  {
    "id": 459,
    "name": "Церква",
    "category": "culture",
    "description": "Деревянная церковь, освящена в 1901 году. Ее основал бывший министр, перебравшийся сюда из Петербурга. Тут молился сам Николай Второй, любивший охотиться на Полесье.",
    "address": "Житомирська область",
    "coordinates": {
      "lat": 51.41041966153846,
      "lng": 29.121878446153843
    },
    "phone": null,
    "website": null,
    "workingHours": null,
    "osm_id": "way/575206726",
    "rating": 4.6
  },
  {
    "id": 461,
    "name": "Церква віри Євангельської",
    "category": "culture",
    "description": "новозбудований дім молитви площею увесь двір",
    "address": "39",
    "coordinates": {
      "lat": 50.769359040000005,
      "lng": 29.23295104
    },
    "phone": null,
    "website": null,
    "workingHours": null,
    "osm_id": "way/576362646",
    "rating": 3.5
  },
  {
    "id": 462,
    "name": "Свято-Миколаївська церква ПЦУ",
    "category": "culture",
    "description": "",
    "address": "вулиця Монякіна, 5",
    "coordinates": {
      "lat": 50.69236920625001,
      "lng": 29.248169700000002
    },
    "phone": null,
    "website": null,
    "workingHours": null,
    "osm_id": "way/587726339",
    "rating": 4.9
  },
  {
    "id": 463,
    "name": "Церква АСД",
    "category": "culture",
    "description": "",
    "address": "Житомирська область",
    "coordinates": {
      "lat": 49.71969726,
      "lng": 29.2030837
    },
    "phone": null,
    "website": null,
    "workingHours": null,
    "osm_id": "way/610775971",
    "rating": 3.4
  },
  {
    "id": 464,
    "name": "Церква ЄХБ \"Дім Молитви\"",
    "category": "culture",
    "description": "",
    "address": "Житомирська область",
    "coordinates": {
      "lat": 49.717515144444434,
      "lng": 29.19288883333333
    },
    "phone": null,
    "website": null,
    "workingHours": null,
    "osm_id": "way/610811238",
    "rating": 3.5
  },
  {
    "id": 466,
    "name": "Церква святої Параскеви П'ятниці",
    "category": "culture",
    "description": "",
    "address": "Житомирська область",
    "coordinates": {
      "lat": 49.71537650714286,
      "lng": 29.21725197857143
    },
    "phone": null,
    "website": null,
    "workingHours": null,
    "osm_id": "way/611556757",
    "rating": 3.6
  },
  {
    "id": 468,
    "name": "Свято-Покровська церква ПЦУ",
    "category": "culture",
    "description": "",
    "address": "60",
    "coordinates": {
      "lat": 50.7589987,
      "lng": 29.291538774074073
    },
    "phone": null,
    "website": null,
    "workingHours": null,
    "osm_id": "way/639682889",
    "rating": 4.5
  },
  {
    "id": 469,
    "name": "Свято-Покровська Церква ПЦУ",
    "category": "culture",
    "description": "",
    "address": "Житомирська область",
    "coordinates": {
      "lat": 50.730707861538455,
      "lng": 29.12839054615385
    },
    "phone": null,
    "website": null,
    "workingHours": null,
    "osm_id": "way/641824470",
    "rating": 3.5
  },
  {
    "id": 471,
    "name": "Свято-Георгіївська церква РПЦ",
    "category": "culture",
    "description": "",
    "address": "Залізнична вулиця, 42",
    "coordinates": {
      "lat": 50.87330132000001,
      "lng": 28.938459619999996
    },
    "phone": null,
    "website": null,
    "workingHours": null,
    "osm_id": "way/656360509",
    "rating": 4.1
  },
  {
    "id": 472,
    "name": "Зал Царства Свідків Єгови",
    "category": "culture",
    "description": "",
    "address": "61-Б",
    "coordinates": {
      "lat": 50.77765111111111,
      "lng": 29.270245877777775
    },
    "phone": null,
    "website": null,
    "workingHours": null,
    "osm_id": "way/656764788",
    "rating": 4.1
  },
  {
    "id": 480,
    "name": "Нове покоління",
    "category": "culture",
    "description": "",
    "address": "вулиця Князя Олега, 13-А",
    "coordinates": {
      "lat": 51.22410566666666,
      "lng": 27.64260641111111
    },
    "phone": null,
    "website": null,
    "workingHours": null,
    "osm_id": "way/668050248",
    "rating": 4.2
  },
  {
    "id": 482,
    "name": "Церква Безсрібників і Чудотворців Косми та Даміана ПЦУ",
    "category": "culture",
    "description": "",
    "address": "25",
    "coordinates": {
      "lat": 50.8567564,
      "lng": 29.11853448
    },
    "phone": null,
    "website": null,
    "workingHours": null,
    "osm_id": "way/669926067",
    "rating": 4.0
  },
  {
    "id": 483,
    "name": "КПСМНЗ «Пулинська школа мистецтв»",
    "category": "culture",
    "description": "",
    "address": "вулиця Шевченка, 96",
    "coordinates": {
      "lat": 50.4683616,
      "lng": 28.27354195
    },
    "phone": null,
    "website": null,
    "workingHours": "Mo-Fr 08:00-17:00",
    "osm_id": "way/674263132",
    "rating": 4.8
  },
  {
    "id": 486,
    "name": "Дім молитви Євангельських Баптистів",
    "category": "culture",
    "description": "",
    "address": "11",
    "coordinates": {
      "lat": 50.766884999999995,
      "lng": 29.23809222
    },
    "phone": null,
    "website": null,
    "workingHours": null,
    "osm_id": "way/682623338",
    "rating": 4.7
  },
  {
    "id": 489,
    "name": "Храм Казанської ікони Божої Матері УПЦ",
    "category": "culture",
    "description": "",
    "address": "вулиця Клима Нагорного, 2",
    "coordinates": {
      "lat": 50.23807452307692,
      "lng": 28.57573376153846
    },
    "phone": null,
    "website": null,
    "workingHours": null,
    "osm_id": "way/685846801",
    "rating": 3.7
  },
  {
    "id": 490,
    "name": "Ставропігійна Свято-Успенська церква ПЦУ",
    "category": "culture",
    "description": "",
    "address": "Базарна вулиця, 2",
    "coordinates": {
      "lat": 50.77583949565218,
      "lng": 29.290118669565217
    },
    "phone": null,
    "website": null,
    "workingHours": null,
    "osm_id": "way/694262373",
    "rating": 4.7
  },
  {
    "id": 492,
    "name": "Церква спасіння християн віри євангельської",
    "category": "culture",
    "description": "",
    "address": "Свято-Миколаївська вулиця, 82",
    "coordinates": {
      "lat": 51.215264266666665,
      "lng": 27.648059733333337
    },
    "phone": null,
    "website": null,
    "workingHours": null,
    "osm_id": "way/696192571",
    "rating": 3.5
  },
  {
    "id": 493,
    "name": "Свято-Троїцька церква РПЦ",
    "category": "culture",
    "description": "",
    "address": "Житомирська область",
    "coordinates": {
      "lat": 50.573028936842114,
      "lng": 28.641515263157892
    },
    "phone": null,
    "website": null,
    "workingHours": null,
    "osm_id": "way/697125894",
    "rating": 3.6
  },
  {
    "id": 494,
    "name": "Капличка роду Гижицьких",
    "category": "culture",
    "description": "",
    "address": "Житомирська область",
    "coordinates": {
      "lat": 50.75763153333333,
      "lng": 29.295306800000002
    },
    "phone": null,
    "website": null,
    "workingHours": null,
    "osm_id": "way/698319148",
    "rating": 3.4
  },
  {
    "id": 500,
    "name": "Костел св. Петра та Павла",
    "category": "culture",
    "description": "",
    "address": "Житомирська область",
    "coordinates": {
      "lat": 49.854474088888885,
      "lng": 28.217915088888887
    },
    "phone": null,
    "website": null,
    "workingHours": null,
    "osm_id": "way/701415244",
    "rating": 3.0
  },
  {
    "id": 503,
    "name": "Храм Різдва Пресвятої Богородиці УПЦМП",
    "category": "culture",
    "description": "",
    "address": "Житомирська область",
    "coordinates": {
      "lat": 49.85318775238094,
      "lng": 28.21504590952381
    },
    "phone": null,
    "website": null,
    "workingHours": null,
    "osm_id": "way/701676062",
    "rating": 4.6
  },
  {
    "id": 505,
    "name": "Помісна Церква Євангельських Християн-Баптистів \"Різдва-Христового\"",
    "category": "culture",
    "description": "",
    "address": "Житомирська область",
    "coordinates": {
      "lat": 49.796415339999996,
      "lng": 27.807459459999997
    },
    "phone": null,
    "website": null,
    "workingHours": null,
    "osm_id": "way/703201469",
    "rating": 4.9
  },
  {
    "id": 510,
    "name": "Храм Святого Іоанна Богослова",
    "category": "culture",
    "description": "",
    "address": "23",
    "coordinates": {
      "lat": 51.19570261111111,
      "lng": 28.079286016666664
    },
    "phone": null,
    "website": null,
    "workingHours": null,
    "osm_id": "way/712645134",
    "rating": 3.2
  },
  {
    "id": 513,
    "name": "Вознесенська церква",
    "category": "culture",
    "description": "",
    "address": "Житомирська область",
    "coordinates": {
      "lat": 50.80562571666666,
      "lng": 27.611821333333335
    },
    "phone": null,
    "website": null,
    "workingHours": null,
    "osm_id": "way/717505184",
    "rating": 4.2
  },
  {
    "id": 515,
    "name": "Кафедральний Собор Різдва Христового",
    "category": "culture",
    "description": "",
    "address": "Житомирська область",
    "coordinates": {
      "lat": 50.948146361538456,
      "lng": 28.645130023076923
    },
    "phone": null,
    "website": null,
    "workingHours": null,
    "osm_id": "way/727711599",
    "rating": 3.8
  },
  {
    "id": 517,
    "name": "Музей Старожитностей",
    "category": "culture",
    "description": "",
    "address": "Житомирська область",
    "coordinates": {
      "lat": 50.8718816,
      "lng": 27.794722259999997
    },
    "phone": null,
    "website": null,
    "workingHours": null,
    "osm_id": "way/736609703",
    "rating": 4.7
  },
  {
    "id": 518,
    "name": "Михайлівська церква",
    "category": "culture",
    "description": "",
    "address": "Житомирська область",
    "coordinates": {
      "lat": 50.81969610588236,
      "lng": 28.847726923529407
    },
    "phone": null,
    "website": null,
    "workingHours": null,
    "osm_id": "way/737369941",
    "rating": 3.2
  },
  {
    "id": 519,
    "name": "Церква Великомученика Димитрія Солунського ПЦУ",
    "category": "culture",
    "description": "",
    "address": "вулиця Фіщука, 12",
    "coordinates": {
      "lat": 49.83967602820514,
      "lng": 29.063256066666664
    },
    "phone": null,
    "website": null,
    "workingHours": null,
    "osm_id": "way/741068531",
    "rating": 4.5
  },
  {
    "id": 520,
    "name": "церква Святителі Іоанна Златоустого УПЦ МП",
    "category": "culture",
    "description": "",
    "address": "Житомирська область",
    "coordinates": {
      "lat": 49.79111845333333,
      "lng": 29.107646046666666
    },
    "phone": null,
    "website": null,
    "workingHours": null,
    "osm_id": "way/742414745",
    "rating": 3.1
  },
  {
    "id": 521,
    "name": "Дерев'яна Михайлівська церква",
    "category": "culture",
    "description": "",
    "address": "Житомирська область",
    "coordinates": {
      "lat": 49.798879246666665,
      "lng": 29.380437253333334
    },
    "phone": null,
    "website": null,
    "workingHours": null,
    "osm_id": "way/742783657",
    "rating": 4.6
  },
  {
    "id": 524,
    "name": "Храм Святого Великомученика Георгія ПЦУ",
    "category": "culture",
    "description": "",
    "address": "Житомирська область",
    "coordinates": {
      "lat": 50.30605838181817,
      "lng": 28.98343929090909
    },
    "phone": null,
    "website": null,
    "workingHours": null,
    "osm_id": "way/759136067",
    "rating": 3.3
  },
  {
    "id": 525,
    "name": "Церква Святих Безсрібників і Чудотворців Кузьми та Даміана ПЦУ",
    "category": "culture",
    "description": "",
    "address": "10",
    "coordinates": {
      "lat": 50.84490824736842,
      "lng": 29.132877236842102
    },
    "phone": null,
    "website": null,
    "workingHours": null,
    "osm_id": "way/759829301",
    "rating": 4.2
  },
  {
    "id": 534,
    "name": "Церква Повного Євангелія \"Новий Час\"",
    "category": "culture",
    "description": "",
    "address": "17",
    "coordinates": {
      "lat": 50.779352460000005,
      "lng": 29.249633199999998
    },
    "phone": null,
    "website": null,
    "workingHours": null,
    "osm_id": "way/772918791",
    "rating": 3.5
  },
  {
    "id": 535,
    "name": "Церква \"Благодаті\"",
    "category": "culture",
    "description": "",
    "address": "38",
    "coordinates": {
      "lat": 50.94598478,
      "lng": 28.629772779999996
    },
    "phone": null,
    "website": null,
    "workingHours": null,
    "osm_id": "way/775106987",
    "rating": 4.0
  },
  {
    "id": 544,
    "name": "Художня школа ім. В.Шкуринського",
    "category": "culture",
    "description": "",
    "address": "Житомирська область",
    "coordinates": {
      "lat": 50.24802355,
      "lng": 28.659458283333333
    },
    "phone": "+380 412 22 7747",
    "website": "https://www.facebook.com/fineart.zt/",
    "workingHours": null,
    "osm_id": "way/798515214",
    "rating": 3.7
  },
  {
    "id": 545,
    "name": "Лютеранська кірха",
    "category": "culture",
    "description": "",
    "address": "вулиця Коцюбинського, 5",
    "coordinates": {
      "lat": 50.24835912,
      "lng": 28.67559834
    },
    "phone": null,
    "website": null,
    "workingHours": null,
    "osm_id": "way/800142536",
    "rating": 4.6
  },
  {
    "id": 546,
    "name": "Грекокатолицька церква святого Івана Богослова",
    "category": "culture",
    "description": "",
    "address": "Чуднівська вулиця, 1",
    "coordinates": {
      "lat": 50.03359114,
      "lng": 28.17720552
    },
    "phone": null,
    "website": null,
    "workingHours": null,
    "osm_id": "way/803487516",
    "rating": 4.8
  },
  {
    "id": 549,
    "name": "Ольгинська церква",
    "category": "culture",
    "description": "",
    "address": "Житомирська область",
    "coordinates": {
      "lat": 50.276940659999994,
      "lng": 28.710212339999998
    },
    "phone": null,
    "website": null,
    "workingHours": null,
    "osm_id": "way/804408321",
    "rating": 4.7
  },
  {
    "id": 552,
    "name": "Церква Стрітення Господа Ісуса Христа",
    "category": "culture",
    "description": "",
    "address": "Житомирська область",
    "coordinates": {
      "lat": 50.37700509999999,
      "lng": 28.09349426
    },
    "phone": null,
    "website": null,
    "workingHours": null,
    "osm_id": "way/807740993",
    "rating": 3.9
  },
  {
    "id": 553,
    "name": "Церква Святого Іоанна Богослова",
    "category": "culture",
    "description": "",
    "address": "Житомирська область",
    "coordinates": {
      "lat": 49.65103324615383,
      "lng": 29.31651363076923
    },
    "phone": null,
    "website": null,
    "workingHours": null,
    "osm_id": "way/807793047",
    "rating": 3.1
  },
  {
    "id": 554,
    "name": "Іоано-Богословська Церква ПЦУ",
    "category": "culture",
    "description": "",
    "address": "Житомирська область",
    "coordinates": {
      "lat": 50.40882764615385,
      "lng": 27.57168263846154
    },
    "phone": null,
    "website": null,
    "workingHours": null,
    "osm_id": "way/807838120",
    "rating": 5.0
  },
  {
    "id": 555,
    "name": "Церква Різдва Богородиці РПЦ",
    "category": "culture",
    "description": "",
    "address": "Житомирська область",
    "coordinates": {
      "lat": 50.04460583529413,
      "lng": 27.79731656470588
    },
    "phone": null,
    "website": null,
    "workingHours": null,
    "osm_id": "way/808138169",
    "rating": 4.9
  },
  {
    "id": 557,
    "name": "Церква Святого Володимира ПЦУ",
    "category": "culture",
    "description": "",
    "address": "27",
    "coordinates": {
      "lat": 50.467185386666664,
      "lng": 28.266580006666675
    },
    "phone": null,
    "website": null,
    "workingHours": null,
    "osm_id": "way/808481051",
    "rating": 3.6
  },
  {
    "id": 558,
    "name": "Українська Православна Церква",
    "category": "culture",
    "description": "Українська Православна Церква Київського Патріархату Св. Миколая Чудотворця Архієпископа Мир Лікійських",
    "address": "вулиця Шевченка, 71",
    "coordinates": {
      "lat": 50.4669911,
      "lng": 28.274807166666662
    },
    "phone": "+380 67 924 2039",
    "website": null,
    "workingHours": null,
    "osm_id": "way/808796891",
    "rating": 4.5
  },
  {
    "id": 559,
    "name": "Свято-Михайлівська церква (РПЦ)",
    "category": "culture",
    "description": "",
    "address": "Михайлівська вулиця, 5",
    "coordinates": {
      "lat": 50.90667356923076,
      "lng": 28.53511986153846
    },
    "phone": null,
    "website": null,
    "workingHours": null,
    "osm_id": "way/809279393",
    "rating": 3.5
  },
  {
    "id": 560,
    "name": "Свято-Димитрівська церква",
    "category": "culture",
    "description": "",
    "address": "Житомирська область",
    "coordinates": {
      "lat": 50.88922340000001,
      "lng": 28.5989513
    },
    "phone": null,
    "website": null,
    "workingHours": null,
    "osm_id": "way/809279434",
    "rating": 3.3
  },
  {
    "id": 561,
    "name": "Свято-Георгіївська церква рпц",
    "category": "culture",
    "description": "",
    "address": "9-А",
    "coordinates": {
      "lat": 50.859082699999995,
      "lng": 28.563997369230773
    },
    "phone": null,
    "website": null,
    "workingHours": null,
    "osm_id": "way/809279725",
    "rating": 4.1
  },
  {
    "id": 562,
    "name": "Ракушка",
    "category": "culture",
    "description": "",
    "address": "Житомирська область",
    "coordinates": {
      "lat": 50.24590841923076,
      "lng": 28.660307438461544
    },
    "phone": null,
    "website": null,
    "workingHours": null,
    "osm_id": "way/810048090",
    "rating": 3.4
  },
  {
    "id": 573,
    "name": "Церква Святої Параскеви",
    "category": "culture",
    "description": "",
    "address": "Житомирська область",
    "coordinates": {
      "lat": 50.77370354,
      "lng": 28.121391140000004
    },
    "phone": null,
    "website": null,
    "workingHours": null,
    "osm_id": "way/833860270",
    "rating": 4.5
  },
  {
    "id": 575,
    "name": "Свято-Варварівська церква РПЦ",
    "category": "culture",
    "description": "",
    "address": "вулиця Лесі Українки, 50-А",
    "coordinates": {
      "lat": 51.21031812000001,
      "lng": 27.602982680000004
    },
    "phone": null,
    "website": null,
    "workingHours": null,
    "osm_id": "way/836398885",
    "rating": 3.2
  },
  {
    "id": 578,
    "name": "Церква Святителя Миколая ПЦУ",
    "category": "culture",
    "description": "",
    "address": "Житомирська область",
    "coordinates": {
      "lat": 50.196433032000016,
      "lng": 29.55213604800001
    },
    "phone": null,
    "website": null,
    "workingHours": null,
    "osm_id": "way/839371109",
    "rating": 4.6
  },
  {
    "id": 579,
    "name": "Свято-Параскевська Церква",
    "category": "culture",
    "description": "",
    "address": "Житомирська область",
    "coordinates": {
      "lat": 50.52813922352942,
      "lng": 28.417155382352945
    },
    "phone": null,
    "website": null,
    "workingHours": null,
    "osm_id": "way/839384522",
    "rating": 3.0
  },
  {
    "id": 580,
    "name": "Музей історії району",
    "category": "culture",
    "description": "",
    "address": "вулиця Незалежності, 8",
    "coordinates": {
      "lat": 50.59626138,
      "lng": 28.44371782
    },
    "phone": null,
    "website": null,
    "workingHours": null,
    "osm_id": "way/839486468",
    "rating": 4.8
  },
  {
    "id": 581,
    "name": "Свято-Михайлівська церква ПЦУ",
    "category": "culture",
    "description": "",
    "address": "Житомирська вулиця, 1а",
    "coordinates": {
      "lat": 50.59319259411765,
      "lng": 28.448387429411763
    },
    "phone": null,
    "website": null,
    "workingHours": null,
    "osm_id": "way/839493801",
    "rating": 3.5
  },
  {
    "id": 583,
    "name": "Церква євангелістів християн-баптистів",
    "category": "culture",
    "description": "",
    "address": "Житомирська область",
    "coordinates": {
      "lat": 50.5751805,
      "lng": 28.30926389
    },
    "phone": null,
    "website": null,
    "workingHours": null,
    "osm_id": "way/839937771",
    "rating": 3.4
  },
  {
    "id": 585,
    "name": "Дерев'яна Хресто-Воздвиженська церква (1787 р.)",
    "category": "culture",
    "description": "",
    "address": "Житомирська область",
    "coordinates": {
      "lat": 50.62253794117647,
      "lng": 28.714063870588234
    },
    "phone": null,
    "website": null,
    "workingHours": null,
    "osm_id": "way/841074895",
    "rating": 4.5
  },
  {
    "id": 590,
    "name": "Дерев'яна Свято-Михайлівська церква (1757 р.)",
    "category": "culture",
    "description": "",
    "address": "Житомирська область",
    "coordinates": {
      "lat": 50.740862831578944,
      "lng": 28.374634384210523
    },
    "phone": null,
    "website": null,
    "workingHours": null,
    "osm_id": "way/842364547",
    "rating": 4.4
  },
  {
    "id": 591,
    "name": "Церква П'ятидесятників",
    "category": "culture",
    "description": "",
    "address": "Житомирська область",
    "coordinates": {
      "lat": 50.927382120000004,
      "lng": 29.41632044
    },
    "phone": null,
    "website": null,
    "workingHours": null,
    "osm_id": "way/842577720",
    "rating": 3.1
  },
  {
    "id": 593,
    "name": "Церква Казанської Божої Матері",
    "category": "culture",
    "description": "",
    "address": "Житомирська область",
    "coordinates": {
      "lat": 50.622949452173906,
      "lng": 28.63227020434783
    },
    "phone": null,
    "website": null,
    "workingHours": null,
    "osm_id": "way/844411955",
    "rating": 4.6
  },
  {
    "id": 594,
    "name": "Церква Успіння Пресвятої Богородиці",
    "category": "culture",
    "description": "",
    "address": "Житомирська область",
    "coordinates": {
      "lat": 50.44879944615385,
      "lng": 28.2224981
    },
    "phone": null,
    "website": null,
    "workingHours": null,
    "osm_id": "way/845071840",
    "rating": 3.6
  },
  {
    "id": 595,
    "name": "Церква Почаївської ікони Божої Матері ПЦУ",
    "category": "culture",
    "description": "",
    "address": "Шкільна вулиця, 62а",
    "coordinates": {
      "lat": 51.27822132,
      "lng": 28.614864840000003
    },
    "phone": null,
    "website": null,
    "workingHours": null,
    "osm_id": "way/846764953",
    "rating": 3.3
  },
  {
    "id": 596,
    "name": "Свято-Покровська церква РПЦ",
    "category": "culture",
    "description": "",
    "address": "Шкільна вулиця",
    "coordinates": {
      "lat": 50.10691222,
      "lng": 27.926642819999994
    },
    "phone": null,
    "website": null,
    "workingHours": null,
    "osm_id": "way/848404706",
    "rating": 3.3
  },
  {
    "id": 597,
    "name": "Свято-Хрестовоздвиженська церква",
    "category": "culture",
    "description": "",
    "address": "Житомирська область",
    "coordinates": {
      "lat": 50.79024153636363,
      "lng": 28.788777927272726
    },
    "phone": null,
    "website": null,
    "workingHours": null,
    "osm_id": "way/851452490",
    "rating": 3.9
  },
  {
    "id": 598,
    "name": "Грушківський будинок культури",
    "category": "culture",
    "description": "",
    "address": "вулиця Миру, 30",
    "coordinates": {
      "lat": 50.496082390000005,
      "lng": 28.45134606
    },
    "phone": null,
    "website": null,
    "workingHours": null,
    "osm_id": "way/852190113",
    "rating": 4.4
  },
  {
    "id": 599,
    "name": "церква Святої Рівноапостольної Марії Магдалини УПЦ МП",
    "category": "culture",
    "description": "",
    "address": "вулиця Перемоги, 19",
    "coordinates": {
      "lat": 50.28488098571428,
      "lng": 29.019351385714284
    },
    "phone": null,
    "website": null,
    "workingHours": null,
    "osm_id": "way/853495683",
    "rating": 4.8
  },
  {
    "id": 601,
    "name": "Омелянівська Свято-Миколаївська церква",
    "category": "culture",
    "description": "",
    "address": "Центральна вулиця, 1а, Горщик",
    "coordinates": {
      "lat": 50.8984934625,
      "lng": 28.296004737500002
    },
    "phone": null,
    "website": null,
    "workingHours": null,
    "osm_id": "way/857152809",
    "rating": 4.9
  },
  {
    "id": 603,
    "name": "Свято-Різдво-Богородична церква рпц",
    "category": "culture",
    "description": "",
    "address": "Житомирська область",
    "coordinates": {
      "lat": 50.791728039999995,
      "lng": 28.5707769
    },
    "phone": null,
    "website": null,
    "workingHours": null,
    "osm_id": "way/879949849",
    "rating": 4.9
  },
  {
    "id": 604,
    "name": "Церква Преподобномученика Макарія Канівського Архімандрита Овруцького ПЦУ",
    "category": "culture",
    "description": "",
    "address": "Житомирська область",
    "coordinates": {
      "lat": 50.475968747619035,
      "lng": 28.855112595238097
    },
    "phone": null,
    "website": null,
    "workingHours": null,
    "osm_id": "way/881957898",
    "rating": 3.7
  },
  {
    "id": 607,
    "name": "Церква Святої Трійці",
    "category": "culture",
    "description": "",
    "address": "Житомирська область",
    "coordinates": {
      "lat": 50.38620847931035,
      "lng": 28.718826182758622
    },
    "phone": null,
    "website": null,
    "workingHours": null,
    "osm_id": "way/892008626",
    "rating": 4.3
  },
  {
    "id": 608,
    "name": "Свято-Троїцька церква",
    "category": "culture",
    "description": "",
    "address": "Житомирська область",
    "coordinates": {
      "lat": 50.40578274000001,
      "lng": 28.804427409999995
    },
    "phone": null,
    "website": null,
    "workingHours": null,
    "osm_id": "way/892069849",
    "rating": 4.2
  },
  {
    "id": 609,
    "name": "Центр культури і дозвілля",
    "category": "culture",
    "description": "",
    "address": "вулиця Незалежності",
    "coordinates": {
      "lat": 50.46783383793103,
      "lng": 28.271260772413793
    },
    "phone": null,
    "website": null,
    "workingHours": null,
    "osm_id": "way/892082816",
    "rating": 4.3
  },
  {
    "id": 611,
    "name": "Церква Різдва Пресвятої Богородиці РПЦ",
    "category": "culture",
    "description": "",
    "address": "Житомирська область",
    "coordinates": {
      "lat": 51.358207717647055,
      "lng": 28.590931058823532
    },
    "phone": null,
    "website": null,
    "workingHours": null,
    "osm_id": "way/893703415",
    "rating": 4.4
  },
  {
    "id": 615,
    "name": "Церква Святого Олександра Невського ПЦУ",
    "category": "culture",
    "description": "",
    "address": "Житомирська область",
    "coordinates": {
      "lat": 50.906090157142856,
      "lng": 29.227235266666668
    },
    "phone": null,
    "website": null,
    "workingHours": null,
    "osm_id": "way/900561446",
    "rating": 4.0
  },
  {
    "id": 616,
    "name": "Церква Іоана Богослова ПЦУ",
    "category": "culture",
    "description": "",
    "address": "Житомирська область",
    "coordinates": {
      "lat": 50.97957254117647,
      "lng": 29.226946964705885
    },
    "phone": null,
    "website": null,
    "workingHours": null,
    "osm_id": "way/900561457",
    "rating": 4.6
  },
  {
    "id": 618,
    "name": "Церква Покрови Пресвятої Богородиці (РПЦ)",
    "category": "culture",
    "description": "",
    "address": "Центральна вулиця, 4",
    "coordinates": {
      "lat": 50.30331095,
      "lng": 29.357701200000005
    },
    "phone": null,
    "website": null,
    "workingHours": null,
    "osm_id": "way/904323130",
    "rating": 4.3
  },
  {
    "id": 619,
    "name": "Церква Святого Іоанна Богослова ПЦУ",
    "category": "culture",
    "description": "",
    "address": "2",
    "coordinates": {
      "lat": 49.957490525000004,
      "lng": 28.726771875000004
    },
    "phone": null,
    "website": null,
    "workingHours": null,
    "osm_id": "way/907071242",
    "rating": 4.5
  },
  {
    "id": 620,
    "name": "Храм Преображення Господнього ПЦУ",
    "category": "culture",
    "description": "",
    "address": "Червона вулиця, 28",
    "coordinates": {
      "lat": 49.90189154,
      "lng": 28.61956594
    },
    "phone": null,
    "website": null,
    "workingHours": null,
    "osm_id": "way/909319134",
    "rating": 4.1
  },
  {
    "id": 621,
    "name": "Свято-Михайлівська церква",
    "category": "culture",
    "description": "",
    "address": "Житомирська область",
    "coordinates": {
      "lat": 49.83888660769231,
      "lng": 28.50802815384615
    },
    "phone": null,
    "website": null,
    "workingHours": null,
    "osm_id": "way/910919100",
    "rating": 4.1
  },
  {
    "id": 622,
    "name": "Церква Іоана Богослова",
    "category": "culture",
    "description": "",
    "address": "Житомирська область",
    "coordinates": {
      "lat": 50.63471613529412,
      "lng": 28.580660652941177
    },
    "phone": null,
    "website": null,
    "workingHours": null,
    "osm_id": "way/911375678",
    "rating": 4.4
  },
  {
    "id": 623,
    "name": "Родини Косачів",
    "category": "culture",
    "description": "",
    "address": "вулиця Сімʼї Косачів, 5А",
    "coordinates": {
      "lat": 50.59438207777778,
      "lng": 27.616389833333333
    },
    "phone": null,
    "website": null,
    "workingHours": null,
    "osm_id": "way/912889584",
    "rating": 4.0
  },
  {
    "id": 624,
    "name": "Церква Преображення Господнього",
    "category": "culture",
    "description": "",
    "address": "Житомирська область",
    "coordinates": {
      "lat": 50.03025466,
      "lng": 28.2617905
    },
    "phone": null,
    "website": null,
    "workingHours": null,
    "osm_id": "way/914793154",
    "rating": 4.1
  },
  {
    "id": 625,
    "name": "Свято-Покровська церква рпц",
    "category": "culture",
    "description": "",
    "address": "Шкільна вулиця, 10",
    "coordinates": {
      "lat": 49.965377992307694,
      "lng": 28.361931315384616
    },
    "phone": null,
    "website": null,
    "workingHours": null,
    "osm_id": "way/914793188",
    "rating": 4.1
  },
  {
    "id": 626,
    "name": "Свято-Миколаївська церква РПЦ",
    "category": "culture",
    "description": "",
    "address": "Житомирська область",
    "coordinates": {
      "lat": 49.75526525333333,
      "lng": 27.773183686666663
    },
    "phone": null,
    "website": null,
    "workingHours": null,
    "osm_id": "way/923984478",
    "rating": 3.5
  },
  {
    "id": 627,
    "name": "Хресто-Воздвиженська церква ПЦУ",
    "category": "culture",
    "description": "",
    "address": "Житомирська область",
    "coordinates": {
      "lat": 50.28578491904762,
      "lng": 27.681345114285715
    },
    "phone": null,
    "website": null,
    "workingHours": null,
    "osm_id": "way/925868451",
    "rating": 3.7
  },
  {
    "id": 628,
    "name": "Церква Різдва Богородиці ПЦУ",
    "category": "culture",
    "description": "",
    "address": "Житомирська область",
    "coordinates": {
      "lat": 50.4825308,
      "lng": 27.354819600000003
    },
    "phone": null,
    "website": null,
    "workingHours": null,
    "osm_id": "way/926295205",
    "rating": 4.6
  },
  {
    "id": 629,
    "name": "Костел Святої Софії",
    "category": "culture",
    "description": "",
    "address": "Житомирська область",
    "coordinates": {
      "lat": 50.55736263076922,
      "lng": 27.60812021538461
    },
    "phone": null,
    "website": null,
    "workingHours": null,
    "osm_id": "way/927176514",
    "rating": 4.3
  },
  {
    "id": 630,
    "name": "Церква Серафима Саровського",
    "category": "culture",
    "description": "",
    "address": "Набережна вулиця, 29",
    "coordinates": {
      "lat": 50.765208019999996,
      "lng": 28.722473846666663
    },
    "phone": null,
    "website": null,
    "workingHours": null,
    "osm_id": "way/930446365",
    "rating": 3.8
  },
  {
    "id": 631,
    "name": "Костел Дитятка Ісус",
    "category": "culture",
    "description": "",
    "address": "вулиця Гулія, 26",
    "coordinates": {
      "lat": 50.7511785888889,
      "lng": 28.714504033333338
    },
    "phone": null,
    "website": null,
    "workingHours": null,
    "osm_id": "way/930446398",
    "rating": 3.8
  },
  {
    "id": 632,
    "name": "Хресто-Воздвиженська церква",
    "category": "culture",
    "description": "",
    "address": "Житомирська область",
    "coordinates": {
      "lat": 50.6460316952381,
      "lng": 28.400348828571435
    },
    "phone": null,
    "website": null,
    "workingHours": null,
    "osm_id": "way/931210985",
    "rating": 3.0
  },
  {
    "id": 634,
    "name": "Церква Преподобної Параскеви Сербської (ПЦУ)",
    "category": "culture",
    "description": "",
    "address": "Житомирська область",
    "coordinates": {
      "lat": 50.74685875294118,
      "lng": 27.81164899411765
    },
    "phone": null,
    "website": null,
    "workingHours": null,
    "osm_id": "way/933420149",
    "rating": 3.2
  },
  {
    "id": 635,
    "name": "Костел Непорочного Зачаття Пресвятої Діви Марії",
    "category": "culture",
    "description": "",
    "address": "вулиця Миру, 1",
    "coordinates": {
      "lat": 50.31328075,
      "lng": 28.2533992
    },
    "phone": "+380 4131 95 234",
    "website": null,
    "workingHours": null,
    "osm_id": "way/934634489",
    "rating": 3.8
  },
  {
    "id": 636,
    "name": "Свято-Покровська церква (ПЦУ)",
    "category": "culture",
    "description": "",
    "address": "вулиця Шевченка, 1",
    "coordinates": {
      "lat": 50.3804159153846,
      "lng": 28.38012714615385
    },
    "phone": null,
    "website": null,
    "workingHours": null,
    "osm_id": "way/934914270",
    "rating": 3.3
  },
  {
    "id": 639,
    "name": "Церква Воздвиження Хреста Господнього (ПЦУ)",
    "category": "culture",
    "description": "",
    "address": "Центральна вулиця, 14-А",
    "coordinates": {
      "lat": 50.075772328571425,
      "lng": 28.871657
    },
    "phone": null,
    "website": null,
    "workingHours": null,
    "osm_id": "way/945562537",
    "rating": 4.4
  },
  {
    "id": 643,
    "name": "Церква РПЦ",
    "category": "culture",
    "description": "",
    "address": "Житомирська область",
    "coordinates": {
      "lat": 50.723330982352934,
      "lng": 28.494832241176468
    },
    "phone": null,
    "website": null,
    "workingHours": null,
    "osm_id": "way/951807237",
    "rating": 4.6
  },
  {
    "id": 644,
    "name": "Церква Покрови Пресвятої Богородиці",
    "category": "culture",
    "description": "",
    "address": "Житомирська область",
    "coordinates": {
      "lat": 50.724162480000004,
      "lng": 28.4924258
    },
    "phone": null,
    "website": null,
    "workingHours": null,
    "osm_id": "way/951807239",
    "rating": 4.1
  },
  {
    "id": 645,
    "name": "мистецька школа ім. Касяна Євченка",
    "category": "culture",
    "description": "",
    "address": "вулиця Богдана Хмельницького, 9",
    "coordinates": {
      "lat": 49.947637459999996,
      "lng": 29.45707128
    },
    "phone": null,
    "website": null,
    "workingHours": null,
    "osm_id": "way/951915072",
    "rating": 4.3
  },
  {
    "id": 646,
    "name": "Свято-Преображенська церква РПЦ",
    "category": "culture",
    "description": "",
    "address": "Житомирська область",
    "coordinates": {
      "lat": 50.727339719999996,
      "lng": 28.669789560000005
    },
    "phone": null,
    "website": null,
    "workingHours": null,
    "osm_id": "way/953187030",
    "rating": 3.8
  },
  {
    "id": 651,
    "name": "Молитовний дім баптистів",
    "category": "culture",
    "description": "",
    "address": "вулиця Миру, 38",
    "coordinates": {
      "lat": 50.54062842,
      "lng": 28.280227759999995
    },
    "phone": null,
    "website": null,
    "workingHours": null,
    "osm_id": "way/975346528",
    "rating": 3.0
  },
  {
    "id": 652,
    "name": "Петро-Павлівська церква рпц",
    "category": "culture",
    "description": "",
    "address": "вулиця Миру, 2",
    "coordinates": {
      "lat": 50.02042985999999,
      "lng": 28.6342848
    },
    "phone": null,
    "website": null,
    "workingHours": null,
    "osm_id": "way/977422616",
    "rating": 3.1
  },
  {
    "id": 657,
    "name": "Церква святих апостолів Петра і Павла ПЦУ",
    "category": "culture",
    "description": "",
    "address": "Соборна вулиця, 5",
    "coordinates": {
      "lat": 50.29385122222223,
      "lng": 27.981479
    },
    "phone": null,
    "website": null,
    "workingHours": null,
    "osm_id": "way/983560571",
    "rating": 3.3
  },
  {
    "id": 660,
    "name": "Костел Святого Архангела Михаїла та Святого Домініка",
    "category": "culture",
    "description": "",
    "address": "Костьольна вулиця, 36а",
    "coordinates": {
      "lat": 49.917790344444455,
      "lng": 27.755302966666665
    },
    "phone": null,
    "website": null,
    "workingHours": null,
    "osm_id": "way/988606337",
    "rating": 3.5
  },
  {
    "id": 661,
    "name": "ПЦУ",
    "category": "culture",
    "description": "",
    "address": "Житомирська область",
    "coordinates": {
      "lat": 50.245568500000005,
      "lng": 28.634740114285712
    },
    "phone": null,
    "website": null,
    "workingHours": null,
    "osm_id": "way/1000008325",
    "rating": 4.4
  },
  {
    "id": 662,
    "name": "Свято-Дмитрівська церква",
    "category": "culture",
    "description": "",
    "address": "Житомирська область",
    "coordinates": {
      "lat": 50.58446020476191,
      "lng": 28.510124633333334
    },
    "phone": null,
    "website": null,
    "workingHours": null,
    "osm_id": "way/1000384406",
    "rating": 4.1
  },
  {
    "id": 665,
    "name": "Свято-Параскевська церква РПЦ",
    "category": "culture",
    "description": "",
    "address": "87",
    "coordinates": {
      "lat": 51.08318968000001,
      "lng": 28.0951096
    },
    "phone": null,
    "website": null,
    "workingHours": null,
    "osm_id": "way/1002566362",
    "rating": 4.6
  },
  {
    "id": 667,
    "name": "Церква Святих Петра і Павла ПЦУ",
    "category": "culture",
    "description": "",
    "address": "Житомирська область",
    "coordinates": {
      "lat": 50.50474821428571,
      "lng": 28.26837427142857
    },
    "phone": null,
    "website": null,
    "workingHours": null,
    "osm_id": "way/1004513249",
    "rating": 3.1
  },
  {
    "id": 668,
    "name": "Церква Успіння Пресвятої Богородиці ПЦУ",
    "category": "culture",
    "description": "",
    "address": "вулиця Канарських, 28",
    "coordinates": {
      "lat": 50.17641438,
      "lng": 28.93623738
    },
    "phone": null,
    "website": null,
    "workingHours": null,
    "osm_id": "way/1004701791",
    "rating": 4.5
  },
  {
    "id": 669,
    "name": "Свято-Михайлівська церква РПЦ",
    "category": "culture",
    "description": "",
    "address": "вулиця Сергія Власюка, 4/1",
    "coordinates": {
      "lat": 51.306427840000005,
      "lng": 28.77275936
    },
    "phone": null,
    "website": null,
    "workingHours": null,
    "osm_id": "way/1004717630",
    "rating": 4.9
  },
  {
    "id": 670,
    "name": "Народний історичний музей села Паволоч",
    "category": "culture",
    "description": "",
    "address": "Житомирська область",
    "coordinates": {
      "lat": 49.865852780000004,
      "lng": 29.45480698
    },
    "phone": null,
    "website": null,
    "workingHours": null,
    "osm_id": "way/1006254981",
    "rating": 4.3
  },
  {
    "id": 671,
    "name": "Помісна церква Віри Євангельської",
    "category": "culture",
    "description": "",
    "address": "Житомирська область",
    "coordinates": {
      "lat": 51.141787279999996,
      "lng": 28.707909460000003
    },
    "phone": null,
    "website": null,
    "workingHours": null,
    "osm_id": "way/1008912615",
    "rating": 3.0
  },
  {
    "id": 674,
    "name": "Церква Пророка Іллі ПЦУ",
    "category": "culture",
    "description": "",
    "address": "Короченська вулиця, 2-А",
    "coordinates": {
      "lat": 50.02097615294118,
      "lng": 28.143894770588233
    },
    "phone": null,
    "website": null,
    "workingHours": null,
    "osm_id": "way/1011331932",
    "rating": 4.4
  },
  {
    "id": 675,
    "name": "церква Рівноапослольних Кирила і Мефодія УПЦ МП",
    "category": "culture",
    "description": "",
    "address": "Привокзальна вулиця, 4",
    "coordinates": {
      "lat": 50.01670768333332,
      "lng": 28.144921425000003
    },
    "phone": null,
    "website": null,
    "workingHours": null,
    "osm_id": "way/1011331935",
    "rating": 3.9
  },
  {
    "id": 676,
    "name": "Церква Святого Михайла ПЦУ",
    "category": "culture",
    "description": "",
    "address": "Житомирська область",
    "coordinates": {
      "lat": 50.43420883076923,
      "lng": 28.467444053846155
    },
    "phone": null,
    "website": null,
    "workingHours": null,
    "osm_id": "way/1012500465",
    "rating": 4.5
  },
  {
    "id": 678,
    "name": "Церква Великомученика Володимира-Митрополита Київського РПЦ",
    "category": "culture",
    "description": "",
    "address": "Середня вулиця, 1а",
    "coordinates": {
      "lat": 49.99675096,
      "lng": 28.115915539999996
    },
    "phone": null,
    "website": null,
    "workingHours": null,
    "osm_id": "way/1017162232",
    "rating": 4.2
  },
  {
    "id": 679,
    "name": "Свято Покровська церква РПЦ",
    "category": "culture",
    "description": "",
    "address": "Житомирська область",
    "coordinates": {
      "lat": 50.08794748888889,
      "lng": 28.066881600000002
    },
    "phone": null,
    "website": null,
    "workingHours": null,
    "osm_id": "way/1017181460",
    "rating": 3.4
  },
  {
    "id": 682,
    "name": "Церква Архистратига Михаїла РПЦ",
    "category": "culture",
    "description": "",
    "address": "Житомирська область",
    "coordinates": {
      "lat": 51.0728482032258,
      "lng": 29.1728841483871
    },
    "phone": null,
    "website": null,
    "workingHours": null,
    "osm_id": "way/1023805043",
    "rating": 4.7
  },
  {
    "id": 684,
    "name": "церква Воздвиження Хреста Господнього",
    "category": "culture",
    "description": "",
    "address": "Центральна вулиця, 42",
    "coordinates": {
      "lat": 49.62328455882353,
      "lng": 29.062345670588236
    },
    "phone": null,
    "website": null,
    "workingHours": null,
    "osm_id": "way/1025326601",
    "rating": 3.0
  },
  {
    "id": 686,
    "name": "Храм Первоверховних Апостолів Петра і Павла",
    "category": "culture",
    "description": "",
    "address": "Житомирська область",
    "coordinates": {
      "lat": 50.600766839130436,
      "lng": 27.60378566521739
    },
    "phone": null,
    "website": null,
    "workingHours": null,
    "osm_id": "way/1028694971",
    "rating": 4.6
  },
  {
    "id": 691,
    "name": "Церква-усипальниця родини Оржевських",
    "category": "culture",
    "description": "",
    "address": "Житомирська область",
    "coordinates": {
      "lat": 50.02776247692308,
      "lng": 27.696969661538464
    },
    "phone": null,
    "website": null,
    "workingHours": null,
    "osm_id": "way/1054504643",
    "rating": 4.2
  },
  {
    "id": 694,
    "name": "Свято-Георгіївська церква",
    "category": "culture",
    "description": "",
    "address": "Березівка",
    "coordinates": {
      "lat": 50.54235065384615,
      "lng": 28.47395013076923
    },
    "phone": null,
    "website": null,
    "workingHours": null,
    "osm_id": "way/1070288268",
    "rating": 3.3
  },
  {
    "id": 695,
    "name": "Костел Святого Максиміліана Кольбе",
    "category": "culture",
    "description": "",
    "address": "Соборна вулиця, 2а",
    "coordinates": {
      "lat": 50.539182260000004,
      "lng": 28.478357700000004
    },
    "phone": null,
    "website": null,
    "workingHours": null,
    "osm_id": "way/1070450374",
    "rating": 4.1
  },
  {
    "id": 697,
    "name": "Церква \"Життя\" ХВЄ",
    "category": "culture",
    "description": "",
    "address": "вулиця Шевченка, 21",
    "coordinates": {
      "lat": 50.87515994285714,
      "lng": 27.806407942857142
    },
    "phone": null,
    "website": null,
    "workingHours": null,
    "osm_id": "way/1077380874",
    "rating": 3.8
  },
  {
    "id": 698,
    "name": "церква УПЦ МП",
    "category": "culture",
    "description": "",
    "address": "Житомирська область",
    "coordinates": {
      "lat": 50.876774531578945,
      "lng": 27.80727154210526
    },
    "phone": null,
    "website": null,
    "workingHours": null,
    "osm_id": "way/1077380875",
    "rating": 3.4
  },
  {
    "id": 699,
    "name": "Дім молитви баптистів",
    "category": "culture",
    "description": "",
    "address": "Соборна вулиця, 77",
    "coordinates": {
      "lat": 50.87356345555557,
      "lng": 27.815523811111113
    },
    "phone": null,
    "website": null,
    "workingHours": null,
    "osm_id": "way/1077380885",
    "rating": 3.3
  },
  {
    "id": 700,
    "name": "Костел св. Апостола Матвія 1909 р.",
    "category": "culture",
    "description": "",
    "address": "вулиця Миру, 69",
    "coordinates": {
      "lat": 50.87906327692307,
      "lng": 27.79032842307692
    },
    "phone": null,
    "website": null,
    "workingHours": null,
    "osm_id": "way/1077517295",
    "rating": 3.2
  },
  {
    "id": 701,
    "name": "Михайлівська церква ПЦУ",
    "category": "culture",
    "description": "",
    "address": "Житомирська область",
    "coordinates": {
      "lat": 50.889877381249995,
      "lng": 29.396280750000003
    },
    "phone": null,
    "website": null,
    "workingHours": null,
    "osm_id": "way/1078455718",
    "rating": 3.3
  },
  {
    "id": 702,
    "name": "Свято Іоанно-Богословська церква",
    "category": "culture",
    "description": "",
    "address": "Житомирська область",
    "coordinates": {
      "lat": 51.02144367777778,
      "lng": 28.87160363333333
    },
    "phone": null,
    "website": null,
    "workingHours": null,
    "osm_id": "way/1084201251",
    "rating": 4.7
  },
  {
    "id": 703,
    "name": "УПЦ КП",
    "category": "culture",
    "description": "",
    "address": "Соборна вулиця, 10/2",
    "coordinates": {
      "lat": 50.87116095555556,
      "lng": 27.799099599999998
    },
    "phone": null,
    "website": null,
    "workingHours": null,
    "osm_id": "way/1084376095",
    "rating": 4.7
  },
  {
    "id": 704,
    "name": "Церква Рівноапостольних Кирила Та Мефодія ПЦУ",
    "category": "culture",
    "description": "",
    "address": "Житомирська область",
    "coordinates": {
      "lat": 49.697377589999995,
      "lng": 29.168572570000002
    },
    "phone": null,
    "website": null,
    "workingHours": null,
    "osm_id": "way/1089013166",
    "rating": 3.1
  },
  {
    "id": 706,
    "name": "Свято-Андріївська церква",
    "category": "culture",
    "description": "",
    "address": "вулиця Шевченка, 7",
    "coordinates": {
      "lat": 50.592446933333335,
      "lng": 28.445752205555557
    },
    "phone": null,
    "website": null,
    "workingHours": null,
    "osm_id": "way/1089571646",
    "rating": 3.8
  },
  {
    "id": 707,
    "name": "Свято-Казанська церква ПЦУ",
    "category": "culture",
    "description": "",
    "address": "Житомирська область",
    "coordinates": {
      "lat": 50.67799865384616,
      "lng": 27.293009184615382
    },
    "phone": null,
    "website": null,
    "workingHours": null,
    "osm_id": "way/1091810164",
    "rating": 4.6
  },
  {
    "id": 709,
    "name": "Церква ЄХБ Дім Світла",
    "category": "culture",
    "description": "",
    "address": "Житомирська область",
    "coordinates": {
      "lat": 50.66620929,
      "lng": 28.38017873
    },
    "phone": null,
    "website": null,
    "workingHours": null,
    "osm_id": "way/1093469174",
    "rating": 4.8
  },
  {
    "id": 710,
    "name": "Церква Вознесіння Господнього ПЦУ",
    "category": "culture",
    "description": "",
    "address": "Житомирська область",
    "coordinates": {
      "lat": 50.543807484615385,
      "lng": 29.34837067692308
    },
    "phone": null,
    "website": null,
    "workingHours": null,
    "osm_id": "way/1095095636",
    "rating": 4.9
  },
  {
    "id": 711,
    "name": "Церква Олександра Невського ПЦУ",
    "category": "culture",
    "description": "",
    "address": "Одеська вулиця",
    "coordinates": {
      "lat": 50.59236340769231,
      "lng": 29.28538043846154
    },
    "phone": null,
    "website": null,
    "workingHours": null,
    "osm_id": "way/1095106448",
    "rating": 4.7
  },
  {
    "id": 712,
    "name": "Церква Святого Олександра Невського РПЦ",
    "category": "culture",
    "description": "",
    "address": "Житомирська область",
    "coordinates": {
      "lat": 49.74800686315789,
      "lng": 29.05514966842105
    },
    "phone": null,
    "website": null,
    "workingHours": null,
    "osm_id": "way/1101011385",
    "rating": 4.8
  },
  {
    "id": 716,
    "name": "Свято-Михайлівська церква УПЦ МП",
    "category": "culture",
    "description": "",
    "address": "вулиця Шевченка, 4-А",
    "coordinates": {
      "lat": 49.96063683846155,
      "lng": 29.708872092307693
    },
    "phone": null,
    "website": null,
    "workingHours": null,
    "osm_id": "way/1150807517",
    "rating": 3.7
  },
  {
    "id": 718,
    "name": "Матері Божої Неустанної Допомоги",
    "category": "culture",
    "description": "",
    "address": "вулиця Гришка, 36",
    "coordinates": {
      "lat": 50.88062036923077,
      "lng": 28.17168566923077
    },
    "phone": "+380 67 349 3488",
    "website": null,
    "workingHours": "Mo-Su 09:00-18:00",
    "osm_id": "way/1156133014",
    "rating": 4.1
  },
  {
    "id": 719,
    "name": "Свято-Різдво-Богородична церква (РПЦ)",
    "category": "culture",
    "description": "",
    "address": "Житомирська область",
    "coordinates": {
      "lat": 50.87862279999999,
      "lng": 28.17406612222222
    },
    "phone": null,
    "website": null,
    "workingHours": null,
    "osm_id": "way/1158635290",
    "rating": 3.3
  },
  {
    "id": 720,
    "name": "Церква святого Іоана Богослова ПЦУ",
    "category": "culture",
    "description": "",
    "address": "Житомирська область",
    "coordinates": {
      "lat": 50.49143236363636,
      "lng": 28.53393835454546
    },
    "phone": null,
    "website": null,
    "workingHours": null,
    "osm_id": "way/1161541666",
    "rating": 3.4
  },
  {
    "id": 721,
    "name": "Церква святого Апостола євангеліста Іоанна Богослова ПЦУ",
    "category": "culture",
    "description": "",
    "address": "Житомирська область",
    "coordinates": {
      "lat": 50.477780888888894,
      "lng": 27.77700527777778
    },
    "phone": null,
    "website": null,
    "workingHours": null,
    "osm_id": "way/1161809162",
    "rating": 3.7
  },
  {
    "id": 722,
    "name": "Церква святої Покрови ПЦУ",
    "category": "culture",
    "description": "",
    "address": "Житомирська область",
    "coordinates": {
      "lat": 50.44711888,
      "lng": 27.771065220000004
    },
    "phone": null,
    "website": null,
    "workingHours": null,
    "osm_id": "way/1162249725",
    "rating": 4.6
  },
  {
    "id": 723,
    "name": "Церква Казанської ікони ПЦУ",
    "category": "culture",
    "description": "",
    "address": "Житомирська область",
    "coordinates": {
      "lat": 50.506873176923065,
      "lng": 28.165183415384618
    },
    "phone": null,
    "website": null,
    "workingHours": null,
    "osm_id": "way/1162851291",
    "rating": 4.4
  },